X,Y,OBJECTID,stop_id,stop_code,stop_name,stop_desc,platform_code,platform_name,stop_lat,stop_lon,zone_id,stop_address,stop_url,level_id,location_type,parent_station,wheelchair_boarding,municipality,on_street,at_street,vehicle_type,Sidewalk_Width__ft_,Accessibility_Score,Sidewalk_Condition,Sidewalk_Material,Current_Shelter,Routes,Municipality_1,Neighborhood,created_user,created_date,last_edited_user,last_edited_date
-71.0263350005666,42.3437529998689,642121,31258,31258,88 Black Falcon,88 Black Falcon - Silver Line - SL2 South Station,,South Station,42.343753,-71.026335,,"88 Black Falcon Ave, Boston, MA 02210",https://www.mbta.com/stops/31258,level_in_street,0,,1,Boston,,,,7,Medium,Good,Concrete,0,742,BOSTON,South Boston Waterfront,DOT_ADMIN,2022/10/17 19:46:59+00,DOT_ADMIN,2022/10/17 19:46:59+00
-71.2022090000656,42.3524990000531,647066,door-WML-0081-harvard,,Newtonville - Harvard St,Newtonville - Harvard St,,,42.352499,-71.202209,,,,level_in_street,2,place-WML-0081,2,Newton,,,,,,,,,,,,DOT_ADMIN,2022/10/17 19:46:59+00,DOT_ADMIN,2022/10/17 19:46:59+00
-71.2070100000802,42.3513559997908,647067,door-WML-0081-walnut,,Newtonville - Walnut St,Newtonville - Walnut St,,,42.351356,-71.20701,,,,level_in_street,2,place-WML-0081,2,Newton,,,,,,,,,,,,DOT_ADMIN,2022/10/17 19:46:59+00,DOT_ADMIN,2022/10/17 19:46:59+00
-71.2288180000777,42.3479740000334,647070,door-WML-0091-ebwas,,West Newton - Washington St (East),West Newton - Washington St (East),,,42.347974,-71.228818,,,,level_in_street,2,place-WML-0091,2,Newton,,,,,,,,,,,,DOT_ADMIN,2022/10/17 19:46:59+00,DOT_ADMIN,2022/10/17 19:46:59+00
-71.2322329995587,42.3476639998181,647071,door-WML-0091-wbwas,,West Newton - Washington St (West),West Newton - Washington St (West),,,42.347664,-71.232233,,,,level_in_street,2,place-WML-0091,2,Newton,,,,,,,,,,,,DOT_ADMIN,2022/10/17 19:46:59+00,DOT_ADMIN,2022/10/17 19:46:59+00
-71.2469480003215,42.3463320000562,647074,door-WML-0102-auburn,,Auburndale - Auburn St,Auburndale - Auburn St,,,42.346332,-71.246948,,,,level_in_street,2,place-WML-0102,2,Newton,,,,,,,,,,,,DOT_ADMIN,2022/10/17 19:46:59+00,DOT_ADMIN,2022/10/17 19:46:59+00
-71.2521260004207,42.345138999962,647075,door-WML-0102-woodland,,Auburndale - Woodland Rd,Auburndale - Woodland Rd,,,42.345139,-71.252126,,,,level_in_street,2,place-WML-0102,2,Newton,,,,,,,,,,,,DOT_ADMIN,2022/10/17 19:46:59+00,DOT_ADMIN,2022/10/17 19:46:59+00
-71.1424830006026,42.3954279998397,647168,70061,70061,Alewife,Alewife - Red Line,,Red Line,42.395428,-71.142483,RapidTransit,,https://www.mbta.com/stops/place-alfcl,level_-2_platform,0,place-alfcl,1,Cambridge,,,1,,,,,,,,,DOT_ADMIN,2022/10/17 19:46:59+00,DOT_ADMIN,2022/10/17 19:46:59+00
-71.1424830006026,42.3954279998397,647170,Alewife-01,,Alewife,Alewife - Red Line - Track 1,1,Track 1,42.395428,-71.142483,RapidTransit,,https://www.mbta.com/stops/place-alfcl,level_-2_platform,0,place-alfcl,1,Cambridge,,,1,,,,,,,,,DOT_ADMIN,2022/10/17 19:46:59+00,DOT_ADMIN,2022/10/17 19:46:59+00
-71.1424830006026,42.3954279998397,647171,Alewife-02,,Alewife,Alewife - Red Line - Track 2,2,Track 2,42.395428,-71.142483,RapidTransit,,https://www.mbta.com/stops/place-alfcl,level_-2_platform,0,place-alfcl,1,Cambridge,,,1,,,,,,,,,DOT_ADMIN,2022/10/17 19:46:59+00,DOT_ADMIN,2022/10/17 19:46:59+00
-71.1409289995287,42.3958619996706,647172,door-alfcl-alewife,,Alewife - Alewife Path,Alewife - Alewife Path,,,42.395862,-71.140929,,,,level_ground,2,place-alfcl,1,Cambridge,,,,,,,,,,,,DOT_ADMIN,2022/10/17 19:46:59+00,DOT_ADMIN,2022/10/17 19:46:59+00
-71.1416310000447,42.3956720000237,647173,door-alfcl-busway,,"Alewife - Garage, Buses","Alewife - Garage, Buses",,,42.395672,-71.141631,,,,level_ground,2,place-alfcl,1,Cambridge,,,,,,,,,,,,DOT_ADMIN,2022/10/17 19:46:59+00,DOT_ADMIN,2022/10/17 19:46:59+00
-71.1415159998346,42.3948930003353,647174,door-alfcl-cambridgepark,,"Alewife - Cambridgepark Dr, Alewife Brook Pkwy","Alewife - Cambridgepark Dr, Alewife Brook Pkwy",,,42.394893,-71.141516,,,,level_in_street,2,place-alfcl,1,Cambridge,,,,,,,,,,,,DOT_ADMIN,2022/10/17 19:46:59+00,DOT_ADMIN,2022/10/17 19:46:59+00
-71.1395749996596,42.3960600000996,647175,door-alfcl-russell,,Alewife - Russell Field,Alewife - Russell Field,,,42.39606,-71.139575,,,,level_ground,2,place-alfcl,1,Cambridge,,,,,,,,,,,,DOT_ADMIN,2022/10/17 19:46:59+00,DOT_ADMIN,2022/10/17 19:46:59+00
-71.1424689996064,42.3955780004425,647176,door-alfcl-steel,,"Alewife - Steel Place, Alewife Brook Reserve","Alewife - Steel Place, Alewife Brook Reserve",,,42.395578,-71.142469,,,,level_in_street,2,place-alfcl,1,Cambridge,,,,,,,,,,,,DOT_ADMIN,2022/10/17 19:46:59+00,DOT_ADMIN,2022/10/17 19:46:59+00
-71.1378809996054,42.3486489995896,647178,70126,70126,Allston Street,Allston Street - Green Line - Park Street & North,,Park Street & North,42.348649,-71.137881,RapidTransit,,https://www.mbta.com/stops/place-alsgr,level_median,0,place-alsgr,2,Boston,,,0,,,,,,,,,DOT_ADMIN,2022/10/17 19:46:59+00,DOT_ADMIN,2022/10/17 19:46:59+00
-71.1373619995723,42.3485459995765,647179,70127,70127,Allston Street,Allston Street - Green Line - (B) Boston College,,Boston College,42.348546,-71.137362,RapidTransit,,https://www.mbta.com/stops/place-alsgr,level_median,0,place-alsgr,2,Boston,,,0,,,,,,,,,DOT_ADMIN,2022/10/17 19:46:59+00,DOT_ADMIN,2022/10/17 19:46:59+00
-71.1143179997336,42.3509010003551,647181,170140,170140,Amory Street,Amory Street - Green Line - Park Street & North,,Park Street & North,42.350901,-71.114318,RapidTransit,,https://www.mbta.com/stops/place-amory,level_median,0,place-amory,1,Boston,,,0,,,,,,,,,DOT_ADMIN,2022/10/17 19:46:59+00,DOT_ADMIN,2022/10/17 19:46:59+00
-71.1150269996982,42.3510659999113,647182,170141,170141,Amory Street,Amory Street - Green Line - (B) Boston College,,Boston College,42.351066,-71.115027,RapidTransit,,https://www.mbta.com/stops/place-amory,level_median,0,place-amory,1,Boston,,,0,,,,,,,,,DOT_ADMIN,2022/10/17 19:46:59+00,DOT_ADMIN,2022/10/17 19:46:59+00
-71.1138630003245,42.3508449995839,647183,door-amory-ebamory,,Amory Street - Amory St,Amory Street - Amory St,,,42.350845,-71.113863,,,,level_in_street,2,place-amory,1,Boston,,,,,,,,,,,,DOT_ADMIN,2022/10/17 19:46:59+00,DOT_ADMIN,2022/10/17 19:46:59+00
-71.1156129994696,42.3510540003405,647184,door-amory-ebbuick,,"Amory Street - Buick St, Saint Paul St","Amory Street - Buick St, Saint Paul St",,,42.351054,-71.115613,,,,level_in_street,2,place-amory,1,Boston,,,,,,,,,,,,DOT_ADMIN,2022/10/17 19:46:59+00,DOT_ADMIN,2022/10/17 19:46:59+00
-71.1138460005613,42.3509220000751,647185,door-amory-wbamory,,Amory Street - Amory St,Amory Street - Amory St,,,42.350922,-71.113846,,,,level_in_street,2,place-amory,1,Boston,,,,,,,,,,,,DOT_ADMIN,2022/10/17 19:46:59+00,DOT_ADMIN,2022/10/17 19:46:59+00
-71.1155950004036,42.35113800019,647186,door-amory-wbbuick,,"Amory Street - Buick St, Saint Paul St","Amory Street - Buick St, Saint Paul St",,,42.351138,-71.115595,,,,level_in_street,2,place-amory,1,Boston,,,,,,,,,,,,DOT_ADMIN,2022/10/17 19:46:59+00,DOT_ADMIN,2022/10/17 19:46:59+00
-71.0576550004451,42.3301540004541,647189,70083,70083,Andrew,Andrew - Red Line - Ashmont/Braintree,1,Ashmont/Braintree,42.330154,-71.057655,RapidTransit,,https://www.mbta.com/stops/place-andrw,level_-2_platform,0,place-andrw,1,Boston,,,1,,,,,,,,,DOT_ADMIN,2022/10/17 19:46:59+00,DOT_ADMIN,2022/10/17 19:46:59+00
-71.0576550004451,42.3301540004541,647190,70084,70084,Andrew,Andrew - Red Line - Alewife,2,Alewife,42.330154,-71.057655,RapidTransit,,https://www.mbta.com/stops/place-andrw,level_-2_platform,0,place-andrw,1,Boston,,,1,,,,,,,,,DOT_ADMIN,2022/10/17 19:46:59+00,DOT_ADMIN,2022/10/17 19:46:59+00
-71.0576050004817,42.3301640002983,647191,door-andrw-busway,,Andrew - Buses,Andrew - Buses,,,42.330164,-71.057605,,,,level_ground,2,place-andrw,2,Boston,,,,,,,,,,,,DOT_ADMIN,2022/10/17 19:46:59+00,DOT_ADMIN,2022/10/17 19:46:59+00
-71.0573089999177,42.3300170001449,647192,door-andrw-dotave,,"Andrew - Street, Buses","Andrew - Street, Buses",,,42.330017,-71.057309,,,,level_ground,2,place-andrw,2,Boston,,,,,,,,,,,,DOT_ADMIN,2022/10/17 19:46:59+00,DOT_ADMIN,2022/10/17 19:46:59+00
-71.0576840005765,42.3300169995988,647193,door-andrw-elevator,,Andrew - Elevator,Andrew - Elevator,,,42.330017,-71.057684,,,,level_ground,2,place-andrw,1,Boston,,,,,,,,,,,,DOT_ADMIN,2022/10/17 19:46:59+00,DOT_ADMIN,2022/10/17 19:46:59+00
-71.057863000088,42.3300040001021,647194,door-andrw-exitonly,,Andrew - Southampton St,Andrew - Southampton St,,,42.330004,-71.057863,,,,level_ground,2,place-andrw,2,Boston,,,,,,,,,,,,DOT_ADMIN,2022/10/17 19:46:59+00,DOT_ADMIN,2022/10/17 19:46:59+00
-71.0303949995171,42.3742619996415,647196,70047,70047,Airport,Airport - Blue Line - Bowdoin,,Bowdoin,42.374262,-71.030395,RapidTransit,,https://www.mbta.com/stops/place-aport,level_0_platform,0,place-aport,1,Boston,,,1,,,,,,,,,DOT_ADMIN,2022/10/17 19:46:59+00,DOT_ADMIN,2022/10/17 19:46:59+00
-71.0303949995171,42.3742619996415,647197,70048,70048,Airport,Airport - Blue Line - Wonderland,,Wonderland,42.374262,-71.030395,RapidTransit,,https://www.mbta.com/stops/place-aport,level_0_platform,0,place-aport,1,Boston,,,1,,,,,,,,,DOT_ADMIN,2022/10/17 19:46:59+00,DOT_ADMIN,2022/10/17 19:46:59+00
-71.0303059997834,42.3745529995633,647200,door-aport-bremen,,Airport - Bremen St,Airport - Bremen St,,,42.374553,-71.030306,,,,level_ground,2,place-aport,1,Boston,,,,,,,,,,,,DOT_ADMIN,2022/10/17 19:46:59+00,DOT_ADMIN,2022/10/17 19:46:59+00
-71.0300310003565,42.3739840000899,647201,door-aport-buses,,"Airport - Buses, Airport","Airport - Buses, Airport",,,42.373984,-71.030031,,,,level_ground,2,place-aport,1,Boston,,,,,,,,,,,,DOT_ADMIN,2022/10/17 19:46:59+00,DOT_ADMIN,2022/10/17 19:46:59+00
-71.0516520001934,42.3597839997986,647203,70043,70043,Aquarium,Aquarium - Blue Line - Bowdoin,1,Bowdoin,42.359784,-71.051652,RapidTransit,,https://www.mbta.com/stops/place-aqucl,level_-2_platform,0,place-aqucl,1,Boston,,,1,,,,,,,,,DOT_ADMIN,2022/10/17 19:46:59+00,DOT_ADMIN,2022/10/17 19:46:59+00
-71.0516520001934,42.3597839997986,647204,70044,70044,Aquarium,Aquarium - Blue Line - Wonderland,2,Wonderland,42.359784,-71.051652,RapidTransit,,https://www.mbta.com/stops/place-aqucl,level_-2_platform,0,place-aqucl,1,Boston,,,1,,,,,,,,,DOT_ADMIN,2022/10/17 19:46:59+00,DOT_ADMIN,2022/10/17 19:46:59+00
-71.0516309997668,42.3597909996172,647205,door-aqucl-atlantic,,Aquarium - Waterfront and New England Aquarium,Aquarium - Waterfront and New England Aquarium,,,42.359791,-71.051631,,,,level_in_street,2,place-aqucl,2,Boston,,,,,,,,,,,,DOT_ADMIN,2022/10/17 19:46:59+00,DOT_ADMIN,2022/10/17 19:46:59+00
-71.0512429998882,42.3598610000267,647206,door-aqucl-atlanticelev,,Aquarium - Waterfront and New England Aquarium,Aquarium - Waterfront and New England Aquarium,,,42.359861,-71.051243,,,,level_in_street,2,place-aqucl,1,Boston,,,,,,,,,,,,DOT_ADMIN,2022/10/17 19:46:59+00,DOT_ADMIN,2022/10/17 19:46:59+00
-71.0531830005077,42.3595339999526,647207,door-aqucl-mcknorth,,Aquarium - State St (North),Aquarium - State St (North),,,42.359534,-71.053183,,,,level_in_street,2,place-aqucl,2,Boston,,,,,,,,,,,,DOT_ADMIN,2022/10/17 19:46:59+00,DOT_ADMIN,2022/10/17 19:46:59+00
-71.0530389996719,42.3593310000941,647208,door-aqucl-mcksouth,,Aquarium - State St (South),Aquarium - State St (South),,,42.359331,-71.053039,,,,level_in_street,2,place-aqucl,1,Boston,,,,,,,,,,,,DOT_ADMIN,2022/10/17 19:46:59+00,DOT_ADMIN,2022/10/17 19:46:59+00
-71.0708929997098,42.3519019997271,647210,70156,70156,Arlington,Arlington - Green Line - Park Street & North,,Park Street & North,42.351902,-71.070893,RapidTransit,,https://www.mbta.com/stops/place-armnl,level_-2_platform,0,place-armnl,1,Boston,,,0,,,,,,,,,DOT_ADMIN,2022/10/17 19:46:59+00,DOT_ADMIN,2022/10/17 19:46:59+00
-71.0708929997098,42.3519019997271,647211,70157,70157,Arlington,Arlington - Green Line - Copley & West,,Copley & West,42.351902,-71.070893,RapidTransit,,https://www.mbta.com/stops/place-armnl,level_-2_platform,0,place-armnl,1,Boston,,,0,,,,,,,,,DOT_ADMIN,2022/10/17 19:46:59+00,DOT_ADMIN,2022/10/17 19:46:59+00
-71.0705089998222,42.3517379996373,647212,door-armnl-arlte,,Arlington - Arlington St (East),Arlington - Arlington St (East),,,42.351738,-71.070509,,,,level_in_street,2,place-armnl,2,Boston,,,,,,,,,,,,DOT_ADMIN,2022/10/17 19:46:59+00,DOT_ADMIN,2022/10/17 19:46:59+00
-71.0706859998735,42.3516939998196,647213,door-armnl-arltw,,Arlington - Arlington St (West),Arlington - Arlington St (West),,,42.351694,-71.070686,,,,level_in_street,2,place-armnl,2,Boston,,,,,,,,,,,,DOT_ADMIN,2022/10/17 19:46:59+00,DOT_ADMIN,2022/10/17 19:46:59+00
-71.0712800000359,42.3517959997091,647214,door-armnl-elevator,,"Arlington - Elevator, Boylston St","Arlington - Elevator, Boylston St",,,42.351796,-71.07128,,,,level_in_street,2,place-armnl,1,Boston,,,,,,,,,,,,DOT_ADMIN,2022/10/17 19:46:59+00,DOT_ADMIN,2022/10/17 19:46:59+00
-71.070863999901,42.3519999998673,647215,door-armnl-garden,,Arlington - Public Garden,Arlington - Public Garden,,,42.352,-71.070864,,,,level_in_street,2,place-armnl,2,Boston,,,,,,,,,,,,DOT_ADMIN,2022/10/17 19:46:59+00,DOT_ADMIN,2022/10/17 19:46:59+00
-71.0638329996084,42.284507999594,647218,70093,70093,Ashmont,Ashmont - Red Line - Exit Only,,Exit Only,42.284508,-71.063833,RapidTransit,,https://www.mbta.com/stops/place-asmnl,level_-1_platform,0,place-asmnl,1,Boston,,,1,,,,,,,,,DOT_ADMIN,2022/10/17 19:46:59+00,DOT_ADMIN,2022/10/17 19:46:59+00
-71.0637249994889,42.2845299998442,647219,70094,70094,Ashmont,Ashmont - Red Line - Alewife,,Alewife,42.28453,-71.063725,RapidTransit,,https://www.mbta.com/stops/place-asmnl,level_-1_platform,0,place-asmnl,1,Boston,,,1,,,,,,,,,DOT_ADMIN,2022/10/17 19:46:59+00,DOT_ADMIN,2022/10/17 19:46:59+00
-71.0631909995901,42.2837679998727,647220,70261,70261,Ashmont,Ashmont - Mattapan Trolley,,Mattapan Trolley,42.283768,-71.063191,RapidTransit,,https://www.mbta.com/stops/place-asmnl,level_ground,0,place-asmnl,1,Boston,,,0,,,,,,,,,DOT_ADMIN,2022/10/17 19:46:59+00,DOT_ADMIN,2022/10/17 19:46:59+00
-71.063468000553,42.2837649997125,647221,door-asmnl-beale,,Ashmont - Beale St,Ashmont - Beale St,,,42.283765,-71.063468,,,,level_-1.5_in_street,2,place-asmnl,1,Boston,,,,,,,,,,,,DOT_ADMIN,2022/10/17 19:46:59+00,DOT_ADMIN,2022/10/17 19:46:59+00
-71.0635980001392,42.2839279995771,647222,door-asmnl-matpn,,Ashmont - Mattapan Line (Lobby),Ashmont - Mattapan Line (Lobby),,,42.283928,-71.063598,,,,level_ground,2,place-asmnl,1,Boston,,,,,,,,,,,,DOT_ADMIN,2022/10/17 19:46:59+00,DOT_ADMIN,2022/10/17 19:46:59+00
-71.0642229996589,42.285203999894,647223,door-asmnl-peabody,,Ashmont - Peabody Square,Ashmont - Peabody Square,,,42.285204,-71.064223,,,,level_in_street,2,place-asmnl,1,Boston,,,,,,,,,,,,DOT_ADMIN,2022/10/17 19:46:59+00,DOT_ADMIN,2022/10/17 19:46:59+00
-71.0629830004246,42.2835870001205,647224,door-asmnl-radford,,Ashmont - Radford Lane,Ashmont - Radford Lane,,,42.283587,-71.062983,,,,level_-1.5_in_street,2,place-asmnl,1,Boston,,,,,,,,,,,,DOT_ADMIN,2022/10/17 19:46:59+00,DOT_ADMIN,2022/10/17 19:46:59+00
-71.0638650002432,42.2844489998946,647225,door-asmnl-rdexits,,Ashmont - Buses,Ashmont - Buses,,,42.284449,-71.063865,,,,level_ground,2,place-asmnl,2,Boston,,,,,,,,,,,,DOT_ADMIN,2022/10/17 19:46:59+00,DOT_ADMIN,2022/10/17 19:46:59+00
-71.0772619998683,42.392330999668,647227,70278,70278,Assembly,Assembly - Orange Line - Forest Hills,,Forest Hills,42.392331,-71.077262,RapidTransit,,https://www.mbta.com/stops/place-astao,level_0_platform,0,place-astao,1,Somerville,,,1,,,,,,,,,DOT_ADMIN,2022/10/17 19:46:59+00,DOT_ADMIN,2022/10/17 19:46:59+00
-71.0771800002555,42.3923360001555,647228,70279,70279,Assembly,Assembly - Orange Line - Oak Grove,,Oak Grove,42.392336,-71.07718,RapidTransit,,https://www.mbta.com/stops/place-astao,level_0_platform,0,place-astao,1,Somerville,,,1,,,,,,,,,DOT_ADMIN,2022/10/17 19:46:59+00,DOT_ADMIN,2022/10/17 19:46:59+00
-71.0776610002858,42.3933120003147,647229,door-astao-foley,,Assembly - Foley St,Assembly - Foley St,,,42.393312,-71.077661,,,,level_in_street,2,place-astao,1,Somerville,,,,,,,,,,,,DOT_ADMIN,2022/10/17 19:46:59+00,DOT_ADMIN,2022/10/17 19:46:59+00
-71.0775590005639,42.392164000394,647230,door-astao-revol,,Assembly - Revolution Dr,Assembly - Revolution Dr,,,42.392164,-71.077559,,,,level_in_street,2,place-astao,1,Somerville,,,,,,,,,,,,DOT_ADMIN,2022/10/17 19:46:59+00,DOT_ADMIN,2022/10/17 19:46:59+00
-71.1195530002605,42.3515380002163,647232,170136,170136,Babcock Street,Babcock Street - Green Line - Park Street & North,,Park Street & North,42.351538,-71.119553,RapidTransit,,https://www.mbta.com/stops/place-babck,level_median,0,place-babck,1,Boston,,,0,,,,,,,,,DOT_ADMIN,2022/10/17 19:46:59+00,DOT_ADMIN,2022/10/17 19:46:59+00
-71.1202570002274,42.3516950004398,647233,170137,170137,Babcock Street,Babcock Street - Green Line - (B) Boston College,,Boston College,42.351695,-71.120257,RapidTransit,,https://www.mbta.com/stops/place-babck,level_median,0,place-babck,1,Boston,,,0,,,,,,,,,DOT_ADMIN,2022/10/17 19:46:59+00,DOT_ADMIN,2022/10/17 19:46:59+00
-71.1187119997374,42.3514240002473,647234,door-babck-ebagganis,,"Babcock Street - Harry Agganis Way, Pleasant St","Babcock Street - Harry Agganis Way, Pleasant St",,,42.351424,-71.118712,,,,level_in_street,2,place-babck,1,Boston,,,,,,,,,,,,DOT_ADMIN,2022/10/17 19:46:59+00,DOT_ADMIN,2022/10/17 19:46:59+00
-71.1211229994281,42.3517190002397,647235,door-babck-ebbabcock,,Babcock Street - Babcock St,Babcock Street - Babcock St,,,42.351719,-71.121123,,,,level_in_street,2,place-babck,1,Boston,,,,,,,,,,,,DOT_ADMIN,2022/10/17 19:46:59+00,DOT_ADMIN,2022/10/17 19:46:59+00
-71.1186950000384,42.3515099998163,647236,door-babck-wbagganis,,"Babcock Street - Harry Agganis Way, Pleasant St","Babcock Street - Harry Agganis Way, Pleasant St",,,42.35151,-71.118695,,,,level_in_street,2,place-babck,1,Boston,,,,,,,,,,,,DOT_ADMIN,2022/10/17 19:46:59+00,DOT_ADMIN,2022/10/17 19:46:59+00
-71.1211029994729,42.3517970001991,647237,door-babck-wbbabcock,,Babcock Street - Babcock St,Babcock Street - Babcock St,,,42.351797,-71.121103,,,,level_in_street,2,place-babck,1,Boston,,,,,,,,,,,,DOT_ADMIN,2022/10/17 19:46:59+00,DOT_ADMIN,2022/10/17 19:46:59+00
-71.1113310005582,42.4003799998546,647239,70509,70509,Ball Square,Ball Square - Green Line - (E) Medford/Tufts,,Medford/Tufts,42.40038,-71.111331,,,https://www.mbta.com/stops/place-balsq,level_0_platform,0,place-balsq,1,Medford,,,,,,,,,,,,DOT_ADMIN,2022/10/17 19:46:59+00,DOT_ADMIN,2022/10/17 19:46:59+00
-71.1112070003189,42.4001029998514,647240,70510,70510,Ball Square,Ball Square - Green Line - Copley & West,,Copley & West,42.400103,-71.111207,,,https://www.mbta.com/stops/place-balsq,level_0_platform,0,place-balsq,1,Medford,,,,,,,,,,,,DOT_ADMIN,2022/10/17 19:46:59+00,DOT_ADMIN,2022/10/17 19:46:59+00
-71.0757269996549,42.3473500003116,647243,70014,70014,Back Bay,Back Bay - Orange Line - Forest Hills,,Forest Hills,42.34735,-71.075727,RapidTransit,,https://www.mbta.com/stops/place-bbsta,level_-1_orange_platform,0,place-bbsta,1,Boston,,,1,,,,,,,,,DOT_ADMIN,2022/10/17 19:46:59+00,DOT_ADMIN,2022/10/17 19:46:59+00
-71.0757269996549,42.3473500003116,647244,70015,70015,Back Bay,Back Bay - Orange Line - Oak Grove,,Oak Grove,42.34735,-71.075727,RapidTransit,,https://www.mbta.com/stops/place-bbsta,level_-1_orange_platform,0,place-bbsta,1,Boston,,,1,,,,,,,,,DOT_ADMIN,2022/10/17 19:46:59+00,DOT_ADMIN,2022/10/17 19:46:59+00
-71.0746990004258,42.3476539998867,647251,door-bbsta-buswayn,,"Back Bay - Clarendon St, Buses (North)","Back Bay - Clarendon St, Buses (North)",,,42.347654,-71.074699,,,,level_in_street,2,place-bbsta,1,Boston,,,,,,,,,,,,DOT_ADMIN,2022/10/17 19:46:59+00,DOT_ADMIN,2022/10/17 19:46:59+00
-71.0746700004657,42.3474449996449,647252,door-bbsta-busways,,"Back Bay - Clarendon St, Buses (South)","Back Bay - Clarendon St, Buses (South)",,,42.347445,-71.07467,,,,level_in_street,2,place-bbsta,1,Boston,,,,,,,,,,,,DOT_ADMIN,2022/10/17 19:46:59+00,DOT_ADMIN,2022/10/17 19:46:59+00
-71.0734099995773,42.3475399997772,647253,door-bbsta-clarcolum,,"Back Bay - Clarendon St, Columbus Ave","Back Bay - Clarendon St, Columbus Ave",,,42.34754,-71.07341,,,,level_in_street,2,place-bbsta,2,Boston,,,,,,,,,,,,DOT_ADMIN,2022/10/17 19:46:59+00,DOT_ADMIN,2022/10/17 19:46:59+00
-71.0729369998973,42.3475519995749,647254,door-bbsta-clarendon1,,Back Bay - Clarendon St (Tracks 1 and 3),Back Bay - Clarendon St (Tracks 1 and 3),,,42.347552,-71.072937,,,,level_in_street,2,place-bbsta,2,Boston,,,,,,,,,,,,DOT_ADMIN,2022/10/17 19:46:59+00,DOT_ADMIN,2022/10/17 19:46:59+00
-71.0730500003064,42.3474710003824,647255,door-bbsta-clarendon2,,Back Bay - Clarendon St (Track 2),Back Bay - Clarendon St (Track 2),,,42.347471,-71.07305,,,,level_in_street,2,place-bbsta,2,Boston,,,,,,,,,,,,DOT_ADMIN,2022/10/17 19:46:59+00,DOT_ADMIN,2022/10/17 19:46:59+00
-71.0759000001053,42.3475839996181,647256,door-bbsta-dartmn,,Back Bay - Dartmouth St (North),Back Bay - Dartmouth St (North),,,42.347584,-71.0759,,,,level_in_street,2,place-bbsta,1,Boston,,,,,,,,,,,,DOT_ADMIN,2022/10/17 19:46:59+00,DOT_ADMIN,2022/10/17 19:46:59+00
-71.0757909999777,42.3473480001158,647257,door-bbsta-dartms,,Back Bay - Dartmouth St (South),Back Bay - Dartmouth St (South),,,42.347348,-71.075791,,,,level_in_street,2,place-bbsta,1,Boston,,,,,,,,,,,,DOT_ADMIN,2022/10/17 19:46:59+00,DOT_ADMIN,2022/10/17 19:46:59+00
-71.0762279997414,42.3475719998164,647258,door-bbsta-dartmw,,Back Bay - Dartmouth St (Tracks 5 and 7),Back Bay - Dartmouth St (Tracks 5 and 7),,,42.347572,-71.076228,,,,level_in_street,2,place-bbsta,2,Boston,,,,,,,,,,,,DOT_ADMIN,2022/10/17 19:46:59+00,DOT_ADMIN,2022/10/17 19:46:59+00
-71.0750539995118,42.3476840001833,647259,door-bbsta-garage,,Back Bay - Garage,Back Bay - Garage,,,42.347684,-71.075054,,,,level_ground,2,place-bbsta,1,Boston,,,,,,,,,,,,DOT_ADMIN,2022/10/17 19:46:59+00,DOT_ADMIN,2022/10/17 19:46:59+00
-71.076565000489,42.3472730002217,647260,door-bbsta-underpass,,Back Bay - Underpass to Copley Place,Back Bay - Underpass to Copley Place,,,42.347273,-71.076565,,,,level_ground,2,place-bbsta,2,Boston,,,,,,,,,,,,DOT_ADMIN,2022/10/17 19:46:59+00,DOT_ADMIN,2022/10/17 19:46:59+00
-71.1110459997135,42.3293690002136,647262,70257,70257,Back of the Hill,Back of the Hill - Green Line - (E) Heath Street,,Heath Street,42.329369,-71.111046,RapidTransit,,https://www.mbta.com/stops/place-bckhl,level_in_street,0,place-bckhl,2,Boston,,,0,,,,,,,,,DOT_ADMIN,2022/10/17 19:46:59+00,DOT_ADMIN,2022/10/17 19:46:59+00
-71.1109310001274,42.3293989995618,647263,70258,70258,Back of the Hill,Back of the Hill - Green Line - Park Street & North,,Park Street & North,42.329399,-71.110931,RapidTransit,,https://www.mbta.com/stops/place-bckhl,level_in_street,0,place-bckhl,2,Boston,,,0,,,,,,,,,DOT_ADMIN,2022/10/17 19:46:59+00,DOT_ADMIN,2022/10/17 19:46:59+00
-71.1401120001782,42.335625000332,647265,70176,70176,Beaconsfield,Beaconsfield - Green Line - Park Street & North,,Park Street & North,42.335625,-71.140112,RapidTransit,,https://www.mbta.com/stops/place-bcnfd,level_ground,0,place-bcnfd,2,Brookline,,,0,,,,,,,,,DOT_ADMIN,2022/10/17 19:46:59+00,DOT_ADMIN,2022/10/17 19:46:59+00
-71.1409029997172,42.3359120000046,647266,70177,70177,Beaconsfield,Beaconsfield - Green Line - (D) Riverside,,Riverside,42.335912,-71.140903,RapidTransit,,https://www.mbta.com/stops/place-bcnfd,level_ground,0,place-bcnfd,2,Brookline,,,0,,,,,,,,,DOT_ADMIN,2022/10/17 19:46:59+00,DOT_ADMIN,2022/10/17 19:46:59+00
-71.1399300000175,42.3357879998666,647267,door-bcnfd-bcnfield,,Beaconsfield - Beaconsfield Rd,Beaconsfield - Beaconsfield Rd,,,42.335788,-71.13993,,,,level_ground,2,place-bcnfd,1,Brookline,,,,,,,,,,,,DOT_ADMIN,2022/10/17 19:46:59+00,DOT_ADMIN,2022/10/17 19:46:59+00
-71.1399700003482,42.3355550001211,647268,door-bcnfd-clark,,Beaconsfield - Clark Rd,Beaconsfield - Clark Rd,,,42.335555,-71.13997,,,,level_ground,2,place-bcnfd,1,Brookline,,,,,,,,,,,,DOT_ADMIN,2022/10/17 19:46:59+00,DOT_ADMIN,2022/10/17 19:46:59+00
-71.1414040005299,42.3360529999944,647269,door-bcnfd-dean,,"Beaconsfield - Dean Rd, Beacon St","Beaconsfield - Dean Rd, Beacon St",,,42.336053,-71.141404,,,,level_1_in_street,2,place-bcnfd,2,Brookline,,,,,,,,,,,,DOT_ADMIN,2022/10/17 19:46:59+00,DOT_ADMIN,2022/10/17 19:46:59+00
-71.1404199994598,42.3358450004417,647270,door-bcnfd-lot,,Beaconsfield - Parking Lot,Beaconsfield - Parking Lot,,,42.335845,-71.14042,,,,level_ground,2,place-bcnfd,2,Brookline,,,,,,,,,,,,DOT_ADMIN,2022/10/17 19:46:59+00,DOT_ADMIN,2022/10/17 19:46:59+00
-71.1351389995583,42.3394709996464,647272,70229,70229,Washington Square,Washington Square - Green Line - (C) Cleveland Circle,,Cleveland Circle,42.339471,-71.135139,RapidTransit,,https://www.mbta.com/stops/place-bcnwa,level_median,0,place-bcnwa,1,Brookline,,,0,,,,,,,,,DOT_ADMIN,2022/10/17 19:46:59+00,DOT_ADMIN,2022/10/17 19:46:59+00
-71.1345869994869,42.3395190002247,647273,70230,70230,Washington Square,Washington Square - Green Line - Park Street & North,,Park Street & North,42.339519,-71.134587,RapidTransit,,https://www.mbta.com/stops/place-bcnwa,level_median,0,place-bcnwa,1,Brookline,,,0,,,,,,,,,DOT_ADMIN,2022/10/17 19:46:59+00,DOT_ADMIN,2022/10/17 19:46:59+00
-71.0346270003322,42.3956669996348,647277,door-belsq-arlington,,Bellingham Square - Arlington Street,Bellingham Square - Arlington Street,,,42.395667,-71.034627,,,,level_in_street,2,place-belsq,1,Chelsea,,,,,,,,,,,,DOT_ADMIN,2022/10/17 19:46:59+00,DOT_ADMIN,2022/10/17 19:46:59+00
-71.0345739996226,42.3955269999102,647278,door-belsq-sixth,,Bellingham Square - Sixth Street,Bellingham Square - Sixth Street,,,42.395527,-71.034574,,,,level_in_street,2,place-belsq,1,Chelsea,,,,,,,,,,,,DOT_ADMIN,2022/10/17 19:46:59+00,DOT_ADMIN,2022/10/17 19:46:59+00
-71.0331729994508,42.3952470001183,647279,door-belsq-washington,,Bellingham Square - Washington Avenue,Bellingham Square - Washington Avenue,,,42.395247,-71.033173,,,,level_1_in_street,2,place-belsq,1,Chelsea,,,,,,,,,,,,DOT_ADMIN,2022/10/17 19:46:59+00,DOT_ADMIN,2022/10/17 19:46:59+00
-71.0998209994622,42.3491649995974,647281,70148,70148,Blandford Street,Blandford Street - Green Line - Park Street & North,,Park Street & North,42.349165,-71.099821,RapidTransit,,https://www.mbta.com/stops/place-bland,level_median,0,place-bland,2,Boston,,,0,,,,,,,,,DOT_ADMIN,2022/10/17 19:46:59+00,DOT_ADMIN,2022/10/17 19:46:59+00
-71.1002130002379,42.3492759996202,647282,70149,70149,Blandford Street,Blandford Street - Green Line - (B) Boston College,,Boston College,42.349276,-71.100213,RapidTransit,,https://www.mbta.com/stops/place-bland,level_median,0,place-bland,2,Boston,,,0,,,,,,,,,DOT_ADMIN,2022/10/17 19:46:59+00,DOT_ADMIN,2022/10/17 19:46:59+00
-70.9926469997367,42.3972190001532,647284,70055,70055,Beachmont,Beachmont - Blue Line - Bowdoin,1,Bowdoin,42.397219,-70.992647,RapidTransit,,https://www.mbta.com/stops/place-bmmnl,level_1_platform,0,place-bmmnl,1,Revere,,,1,,,,,,,,,DOT_ADMIN,2022/10/17 19:46:59+00,DOT_ADMIN,2022/10/17 19:46:59+00
-70.9925510003842,42.3972040003292,647285,70056,70056,Beachmont,Beachmont - Blue Line - Wonderland,2,Wonderland,42.397204,-70.992551,RapidTransit,,https://www.mbta.com/stops/place-bmmnl,level_1_platform,0,place-bmmnl,1,Revere,,,1,,,,,,,,,DOT_ADMIN,2022/10/17 19:46:59+00,DOT_ADMIN,2022/10/17 19:46:59+00
-70.9923579994446,42.397551000061,647286,door-bmmnl-main,,Beachmont - Winthrop Ave,Beachmont - Winthrop Ave,,,42.397551,-70.992358,,,,level_in_street,2,place-bmmnl,1,Revere,,,,,,,,,,,,DOT_ADMIN,2022/10/17 19:46:59+00,DOT_ADMIN,2022/10/17 19:46:59+00
-71.1288689998366,42.3400529995937,647288,70225,70225,Brandon Hall,Brandon Hall - Green Line - (C) Cleveland Circle,,Cleveland Circle,42.340053,-71.128869,RapidTransit,,https://www.mbta.com/stops/place-bndhl,level_median,0,place-bndhl,2,Brookline,,,0,,,,,,,,,DOT_ADMIN,2022/10/17 19:46:59+00,DOT_ADMIN,2022/10/17 19:46:59+00
-71.1286600003068,42.340038000226,647289,70226,70226,Brandon Hall,Brandon Hall - Green Line - Park Street & North,,Park Street & North,42.340038,-71.12866,RapidTransit,,https://www.mbta.com/stops/place-bndhl,level_median,0,place-bndhl,2,Brookline,,,0,,,,,,,,,DOT_ADMIN,2022/10/17 19:46:59+00,DOT_ADMIN,2022/10/17 19:46:59+00
-71.0620370004147,42.3613650000437,647291,70038,70038,Bowdoin,Bowdoin - Blue Line - Wonderland,,Wonderland,42.361365,-71.062037,RapidTransit,,https://www.mbta.com/stops/place-bomnl,level_-1_platform,0,place-bomnl,2,Boston,,,1,,,,,,,,,DOT_ADMIN,2022/10/17 19:46:59+00,DOT_ADMIN,2022/10/17 19:46:59+00
-71.0620370004147,42.3613650000437,647292,70838,70838,Bowdoin,Bowdoin - Blue Line - Exit Only,,Exit Only,42.361365,-71.062037,RapidTransit,,https://www.mbta.com/stops/place-bomnl,level_-1_platform,0,place-bomnl,2,Boston,,,1,,,,,,,,,DOT_ADMIN,2022/10/17 19:46:59+00,DOT_ADMIN,2022/10/17 19:46:59+00
-71.061971000603,42.3613500001468,647293,door-bomnl-main,,Bowdoin - Cambridge St,Bowdoin - Cambridge St,,,42.36135,-71.061971,,,,level_in_street,2,place-bomnl,2,Boston,,,,,,,,,,,,DOT_ADMIN,2022/10/17 19:46:59+00,DOT_ADMIN,2022/10/17 19:46:59+00
-71.0646820003881,42.3525310003698,647298,70158,70158,Boylston,Boylston - Green Line - Park Street & North,,Park Street & North,42.352531,-71.064682,RapidTransit,,https://www.mbta.com/stops/place-boyls,level_-1_platform,0,place-boyls,2,Boston,,,0,,,,,,,,,DOT_ADMIN,2022/10/17 19:46:59+00,DOT_ADMIN,2022/10/17 19:46:59+00
-71.0645450000865,42.3532140001456,647299,70159,70159,Boylston,Boylston - Green Line - Copley & West,,Copley & West,42.353214,-71.064545,RapidTransit,,https://www.mbta.com/stops/place-boyls,level_-1_platform,0,place-boyls,2,Boston,,,0,,,,,,,,,DOT_ADMIN,2022/10/17 19:46:59+00,DOT_ADMIN,2022/10/17 19:46:59+00
-71.0646849996074,42.3525310000196,647300,door-boyls-inbound,,"Boylston - Boston Common, Street","Boylston - Boston Common, Street",,,42.352531,-71.064685,,,,level_in_street,2,place-boyls,2,Boston,,,,,,,,,,,,DOT_ADMIN,2022/10/17 19:46:59+00,DOT_ADMIN,2022/10/17 19:46:59+00
-71.0645460002396,42.3532140003317,647301,door-boyls-outbound,,"Boylston - Boston Common, Street","Boylston - Boston Common, Street",,,42.353214,-71.064546,,,,level_in_street,2,place-boyls,2,Boston,,,,,,,,,,,,DOT_ADMIN,2022/10/17 19:46:59+00,DOT_ADMIN,2022/10/17 19:46:59+00
-71.0569669994852,42.3426220002624,647303,70081,70081,Broadway,Broadway - Red Line - Ashmont/Braintree,,Ashmont/Braintree,42.342622,-71.056967,RapidTransit,,https://www.mbta.com/stops/place-brdwy,level_-2_platform,0,place-brdwy,1,Boston,,,1,,,,,,,,,DOT_ADMIN,2022/10/17 19:46:59+00,DOT_ADMIN,2022/10/17 19:46:59+00
-71.0569669994852,42.3426220002624,647304,70082,70082,Broadway,Broadway - Red Line - Alewife,,Alewife,42.342622,-71.056967,RapidTransit,,https://www.mbta.com/stops/place-brdwy,level_-2_platform,0,place-brdwy,1,Boston,,,1,,,,,,,,,DOT_ADMIN,2022/10/17 19:46:59+00,DOT_ADMIN,2022/10/17 19:46:59+00
-71.0569439994305,42.3425600002156,647305,door-brdwy-main,,Broadway - Broadway,Broadway - Broadway,,,42.34256,-71.056944,,,,level_in_street,2,place-brdwy,1,Boston,,,,,,,,,,,,DOT_ADMIN,2022/10/17 19:46:59+00,DOT_ADMIN,2022/10/17 19:46:59+00
-71.057389000596,42.3429620001438,647306,door-brdwy-traveler,,Broadway - Traveler St,Broadway - Traveler St,,,42.342962,-71.057389,,,,level_in_street,2,place-brdwy,2,Boston,,,,,,,,,,,,DOT_ADMIN,2022/10/17 19:46:59+00,DOT_ADMIN,2022/10/17 19:46:59+00
-71.1250669998552,42.3518910000226,647308,70134,70134,Packard's Corner,Packard's Corner - Green Line - Park Street & North,,Park Street & North,42.351891,-71.125067,RapidTransit,,https://www.mbta.com/stops/place-brico,level_median,0,place-brico,2,Boston,,,0,,,,,,,,,DOT_ADMIN,2022/10/17 19:46:59+00,DOT_ADMIN,2022/10/17 19:46:59+00
-71.1255099997167,42.3516509996075,647309,70135,70135,Packard's Corner,Packard's Corner - Green Line - (B) Boston College,,Boston College,42.351651,-71.12551,RapidTransit,,https://www.mbta.com/stops/place-brico,level_median,0,place-brico,2,Boston,,,0,,,,,,,,,DOT_ADMIN,2022/10/17 19:46:59+00,DOT_ADMIN,2022/10/17 19:46:59+00
-71.1264059996313,42.3312929999684,647311,70178,70178,Brookline Hills,Brookline Hills - Green Line - Park Street & North,,Park Street & North,42.331293,-71.126406,RapidTransit,,https://www.mbta.com/stops/place-brkhl,level_ground,0,place-brkhl,1,Brookline,,,0,,,,,,,,,DOT_ADMIN,2022/10/17 19:46:59+00,DOT_ADMIN,2022/10/17 19:46:59+00
-71.1270250001369,42.3314129996322,647312,70179,70179,Brookline Hills,Brookline Hills - Green Line - (D) Riverside,,Riverside,42.331413,-71.127025,RapidTransit,,https://www.mbta.com/stops/place-brkhl,level_ground,0,place-brkhl,1,Brookline,,,0,,,,,,,,,DOT_ADMIN,2022/10/17 19:46:59+00,DOT_ADMIN,2022/10/17 19:46:59+00
-71.1270639995408,42.3314460003451,647313,door-brkhl-bhs,,Brookline Hills - Tappan St (West),Brookline Hills - Tappan St (West),,,42.331446,-71.127064,,,,level_in_street,2,place-brkhl,1,Brookline,,,,,,,,,,,,DOT_ADMIN,2022/10/17 19:46:59+00,DOT_ADMIN,2022/10/17 19:46:59+00
-71.1266119997445,42.3313749999002,647314,door-brkhl-cypress,,Brookline Hills - Tappan St (East),Brookline Hills - Tappan St (East),,,42.331375,-71.126612,,,,level_in_street,2,place-brkhl,1,Brookline,,,,,,,,,,,,DOT_ADMIN,2022/10/17 19:46:59+00,DOT_ADMIN,2022/10/17 19:46:59+00
-71.1044869999652,42.3343309996055,647316,70249,70249,Brigham Circle,Brigham Circle - Green Line - (E) Heath Street,,Heath Street,42.334331,-71.104487,RapidTransit,,https://www.mbta.com/stops/place-brmnl,level_median,0,place-brmnl,1,Boston,,,0,,,,,,,,,DOT_ADMIN,2022/10/17 19:46:59+00,DOT_ADMIN,2022/10/17 19:46:59+00
-71.1030169998377,42.3348459998179,647317,70250,70250,Brigham Circle,Brigham Circle - Green Line - Park Street & North,,Park Street & North,42.334846,-71.103017,RapidTransit,,https://www.mbta.com/stops/place-brmnl,level_median,0,place-brmnl,1,Boston,,,0,,,,,,,,,DOT_ADMIN,2022/10/17 19:46:59+00,DOT_ADMIN,2022/10/17 19:46:59+00
-71.0016450003021,42.207423999711,647320,70105,70105,Braintree,Braintree - Red Line,,Red Line,42.207424,-71.001645,RapidTransit,,https://www.mbta.com/stops/place-brntn,level_1_red_platform,0,place-brntn,1,Braintree,,,1,,,,,,,,,DOT_ADMIN,2022/10/17 19:46:59+00,DOT_ADMIN,2022/10/17 19:46:59+00
-71.0015999998165,42.2074279997271,647321,Braintree-01,,Braintree,Braintree - Red Line - Track 1,1,Track 1,42.207428,-71.0016,RapidTransit,,https://www.mbta.com/stops/place-brntn,level_1_red_platform,0,place-brntn,1,Braintree,,,1,,,,,,,,,DOT_ADMIN,2022/10/17 19:46:59+00,DOT_ADMIN,2022/10/17 19:46:59+00
-71.0017039999734,42.2074280004137,647322,Braintree-02,,Braintree,Braintree - Red Line - Track 2,2,Track 2,42.207428,-71.001704,RapidTransit,,https://www.mbta.com/stops/place-brntn,level_1_red_platform,0,place-brntn,1,Braintree,,,1,,,,,,,,,DOT_ADMIN,2022/10/17 19:46:59+00,DOT_ADMIN,2022/10/17 19:46:59+00
-71.0013609998456,42.2073519995675,647326,door-brntn-busway,,"Braintree - Garage, Buses, Ivory St","Braintree - Garage, Buses, Ivory St",,,42.207352,-71.001361,,,,level_ground,2,place-brntn,1,Braintree,,,,,,,,,,,,DOT_ADMIN,2022/10/17 19:46:59+00,DOT_ADMIN,2022/10/17 19:46:59+00
-71.00133899991,42.2075279995944,647327,door-brntn-faregates,,"Braintree - Garage, Buses, Union St","Braintree - Garage, Buses, Union St",,,42.207528,-71.001339,,,,level_ground,2,place-brntn,1,Braintree,,,,,,,,,,,,DOT_ADMIN,2022/10/17 19:46:59+00,DOT_ADMIN,2022/10/17 19:46:59+00
-71.1069019997068,42.3500129998955,647329,70144,70144,Boston University Central,Boston University Central - Green Line - Park Street & North,,Park Street & North,42.350013,-71.106902,RapidTransit,,https://www.mbta.com/stops/place-bucen,level_median,0,place-bucen,1,Boston,,,0,,,,,,,,,DOT_ADMIN,2022/10/17 19:46:59+00,DOT_ADMIN,2022/10/17 19:46:59+00
-71.1074549997895,42.350147999573,647330,70145,70145,Boston University Central,Boston University Central - Green Line - (B) Boston College,,Boston College,42.350148,-71.107455,RapidTransit,,https://www.mbta.com/stops/place-bucen,level_median,0,place-bucen,1,Boston,,,0,,,,,,,,,DOT_ADMIN,2022/10/17 19:46:59+00,DOT_ADMIN,2022/10/17 19:46:59+00
-71.1039889998997,42.3496590003948,647332,70146,70146,Boston University East,Boston University East - Green Line - Park Street & North,,Park Street & North,42.349659,-71.103989,RapidTransit,,https://www.mbta.com/stops/place-buest,level_median,0,place-buest,1,Boston,,,0,,,,,,,,,DOT_ADMIN,2022/10/17 19:46:59+00,DOT_ADMIN,2022/10/17 19:46:59+00
-71.1046570001843,42.3498110001041,647333,70147,70147,Boston University East,Boston University East - Green Line - (B) Boston College,,Boston College,42.349811,-71.104657,RapidTransit,,https://www.mbta.com/stops/place-buest,level_median,0,place-buest,1,Boston,,,0,,,,,,,,,DOT_ADMIN,2022/10/17 19:46:59+00,DOT_ADMIN,2022/10/17 19:46:59+00
-71.0625130000008,42.2724490004174,647335,70265,70265,Butler,Butler - Mattapan Trolley - Mattapan,,Mattapan,42.272449,-71.062513,RapidTransit,,https://www.mbta.com/stops/place-butlr,level_ground,0,place-butlr,1,Boston,,,0,,,,,,,,,DOT_ADMIN,2022/10/17 19:46:59+00,DOT_ADMIN,2022/10/17 19:46:59+00
-71.0624379997536,42.2724769996364,647336,70266,70266,Butler,Butler - Mattapan Trolley - Ashmont,,Ashmont,42.272477,-71.062438,RapidTransit,,https://www.mbta.com/stops/place-butlr,level_ground,0,place-butlr,1,Boston,,,0,,,,,,,,,DOT_ADMIN,2022/10/17 19:46:59+00,DOT_ADMIN,2022/10/17 19:46:59+00
-71.0626770005774,42.2721149998728,647337,door-butlr-bearse,,"Butler - Bearse Ave, Butler St","Butler - Bearse Ave, Butler St",,,42.272115,-71.062677,,,,level_0.5_ground,2,place-butlr,1,Boston,,,,,,,,,,,,DOT_ADMIN,2022/10/17 19:46:59+00,DOT_ADMIN,2022/10/17 19:46:59+00
-71.0625790000784,42.2724690000408,647338,door-butlr-branchfield,,"Butler - Branchfield St, Butler St","Butler - Branchfield St, Butler St",,,42.272469,-71.062579,,,,level_ground,2,place-butlr,1,Boston,,,,,,,,,,,,DOT_ADMIN,2022/10/17 19:46:59+00,DOT_ADMIN,2022/10/17 19:46:59+00
-71.1167509995137,42.3326140000245,647340,70180,70180,Brookline Village,Brookline Village - Green Line - Park Street & North,,Park Street & North,42.332614,-71.116751,RapidTransit,,https://www.mbta.com/stops/place-bvmnl,level_ground,0,place-bvmnl,1,Brookline,,,0,,,,,,,,,DOT_ADMIN,2022/10/17 19:46:59+00,DOT_ADMIN,2022/10/17 19:46:59+00
-71.1170410004908,42.3325700004317,647341,70181,70181,Brookline Village,Brookline Village - Green Line - (D) Riverside,,Riverside,42.33257,-71.117041,RapidTransit,,https://www.mbta.com/stops/place-bvmnl,level_ground,0,place-bvmnl,1,Brookline,,,0,,,,,,,,,DOT_ADMIN,2022/10/17 19:46:59+00,DOT_ADMIN,2022/10/17 19:46:59+00
-71.1165419998665,42.332660000367,647342,door-bvmnl-boylston,,"Brookline Village - Buses, Route 9","Brookline Village - Buses, Route 9",,,42.33266,-71.116542,,,,level_in_street,2,place-bvmnl,1,Brookline,,,,,,,,,,,,DOT_ADMIN,2022/10/17 19:46:59+00,DOT_ADMIN,2022/10/17 19:46:59+00
-71.1166100004153,42.3328179998999,647343,door-bvmnl-kent,,"Brookline Village - Station St, Kent St","Brookline Village - Station St, Kent St",,,42.332818,-71.11661,,,,level_in_street,2,place-bvmnl,1,Brookline,,,,,,,,,,,,DOT_ADMIN,2022/10/17 19:46:59+00,DOT_ADMIN,2022/10/17 19:46:59+00
-71.1174399997054,42.3321769997087,647344,door-bvmnl-place,,Brookline Village - 10 Brookline Place West,Brookline Village - 10 Brookline Place West,,,42.332177,-71.11744,,,,level_1_ground,2,place-bvmnl,2,Brookline,,,,,,,,,,,,DOT_ADMIN,2022/10/17 19:46:59+00,DOT_ADMIN,2022/10/17 19:46:59+00
-71.1172140002457,42.3325519999667,647345,door-bvmnl-washington,,"Brookline Village - Station St, Washington St","Brookline Village - Station St, Washington St",,,42.332552,-71.117214,,,,level_in_street,2,place-bvmnl,1,Brookline,,,,,,,,,,,,DOT_ADMIN,2022/10/17 19:46:59+00,DOT_ADMIN,2022/10/17 19:46:59+00
-71.0871390001815,42.2675890003333,647347,70273,70273,Capen Street,Capen Street - Mattapan Trolley - Mattapan,,Mattapan,42.267589,-71.087139,RapidTransit,,https://www.mbta.com/stops/place-capst,level_ground,0,place-capst,1,Milton,,,0,,,,,,,,,DOT_ADMIN,2022/10/17 19:46:59+00,DOT_ADMIN,2022/10/17 19:46:59+00
-71.0873380000824,42.2675629998984,647348,70274,70274,Capen Street,Capen Street - Mattapan Trolley - Ashmont,,Ashmont,42.267563,-71.087338,RapidTransit,,https://www.mbta.com/stops/place-capst,level_ground,0,place-capst,1,Milton,,,0,,,,,,,,,DOT_ADMIN,2022/10/17 19:46:59+00,DOT_ADMIN,2022/10/17 19:46:59+00
-71.08726600004,42.2675290003687,647349,door-capst-ashmont,,Capen Street - Capen St (East),Capen Street - Capen St (East),,,42.267529,-71.087266,,,,level_in_street,2,place-capst,1,Milton,,,,,,,,,,,,DOT_ADMIN,2022/10/17 19:46:59+00,DOT_ADMIN,2022/10/17 19:46:59+00
-71.0872410000337,42.2675950002071,647350,door-capst-mattapan,,Capen Street - Capen St (West),Capen Street - Capen St (West),,,42.267595,-71.087241,,,,level_in_street,2,place-capst,1,Milton,,,,,,,,,,,,DOT_ADMIN,2022/10/17 19:46:59+00,DOT_ADMIN,2022/10/17 19:46:59+00
-71.0695329996263,42.37362200021,647352,70028,70028,Community College,Community College - Orange Line - Forest Hills,,Forest Hills,42.373622,-71.069533,RapidTransit,,https://www.mbta.com/stops/place-ccmnl,level_-1_platform,0,place-ccmnl,1,Boston,,,1,,,,,,,,,DOT_ADMIN,2022/10/17 19:46:59+00,DOT_ADMIN,2022/10/17 19:46:59+00
-71.0695329996263,42.37362200021,647353,70029,70029,Community College,Community College - Orange Line - Oak Grove,,Oak Grove,42.373622,-71.069533,RapidTransit,,https://www.mbta.com/stops/place-ccmnl,level_-1_platform,0,place-ccmnl,1,Boston,,,1,,,,,,,,,DOT_ADMIN,2022/10/17 19:46:59+00,DOT_ADMIN,2022/10/17 19:46:59+00
-71.0696000004033,42.3737190002669,647354,door-ccmnl-main,,"Community College - Community College, Rutherford Ave","Community College - Community College, Rutherford Ave",,,42.373719,-71.0696,,,,level_in_street,2,place-ccmnl,1,Boston,,,,,,,,,,,,DOT_ADMIN,2022/10/17 19:46:59+00,DOT_ADMIN,2022/10/17 19:46:59+00
-71.0603920000006,42.2795459999665,647356,70263,70263,Cedar Grove,Cedar Grove - Mattapan Trolley - Mattapan,,Mattapan,42.279546,-71.060392,RapidTransit,,https://www.mbta.com/stops/place-cedgr,level_ground,0,place-cedgr,1,Boston,,,0,,,,,,,,,DOT_ADMIN,2022/10/17 19:46:59+00,DOT_ADMIN,2022/10/17 19:46:59+00
-71.0603809995247,42.2796930002871,647357,70264,70264,Cedar Grove,Cedar Grove - Mattapan Trolley - Ashmont,,Ashmont,42.279693,-71.060381,RapidTransit,,https://www.mbta.com/stops/place-cedgr,level_ground,0,place-cedgr,1,Boston,,,0,,,,,,,,,DOT_ADMIN,2022/10/17 19:46:59+00,DOT_ADMIN,2022/10/17 19:46:59+00
-71.0603599996565,42.2797099996091,647358,door-cedgr-fellsway,,Cedar Grove - Fellsway St,Cedar Grove - Fellsway St,,,42.27971,-71.06036,,,,level_in_street,2,place-cedgr,1,Boston,,,,,,,,,,,,DOT_ADMIN,2022/10/17 19:46:59+00,DOT_ADMIN,2022/10/17 19:46:59+00
-71.0611220002006,42.2799690002176,647359,door-cedgr-hillsdale,,Cedar Grove - Hillsdale St,Cedar Grove - Hillsdale St,,,42.279969,-71.061122,,,,level_in_street,2,place-cedgr,1,Boston,,,,,,,,,,,,DOT_ADMIN,2022/10/17 19:46:59+00,DOT_ADMIN,2022/10/17 19:46:59+00
-71.0735229994524,42.2700539998069,647361,70269,70269,Central Avenue,Central Avenue - Mattapan Trolley - Mattapan,,Mattapan,42.270054,-71.073523,RapidTransit,,https://www.mbta.com/stops/place-cenav,level_ground,0,place-cenav,1,Milton,,,0,,,,,,,,,DOT_ADMIN,2022/10/17 19:46:59+00,DOT_ADMIN,2022/10/17 19:46:59+00
-71.0733579997284,42.2700009999094,647362,70270,70270,Central Avenue,Central Avenue - Mattapan Trolley - Ashmont,,Ashmont,42.270001,-71.073358,RapidTransit,,https://www.mbta.com/stops/place-cenav,level_ground,0,place-cenav,1,Milton,,,0,,,,,,,,,DOT_ADMIN,2022/10/17 19:46:59+00,DOT_ADMIN,2022/10/17 19:46:59+00
-71.0732989997551,42.2699909997784,647363,door-cenav-ashmont,,Central Avenue - Central Ave (South),Central Avenue - Central Ave (South),,,42.269991,-71.073299,,,,level_in_street,2,place-cenav,1,Milton,,,,,,,,,,,,DOT_ADMIN,2022/10/17 19:46:59+00,DOT_ADMIN,2022/10/17 19:46:59+00
-71.0733269995363,42.2700690001427,647364,door-cenav-mattapan,,"Central Avenue - Central Ave (North), Neponset Trail","Central Avenue - Central Ave (North), Neponset Trail",,,42.270069,-71.073327,,,,level_in_street,2,place-cenav,1,Milton,,,,,,,,,,,,DOT_ADMIN,2022/10/17 19:46:59+00,DOT_ADMIN,2022/10/17 19:46:59+00
-71.0401499998592,42.3968989998029,647371,door-chels-crnorthever,,"Chelsea - Everett Ave, Silver Line - SL3","Chelsea - Everett Ave, Silver Line - SL3",,,42.396899,-71.04015,,,,level_in_street,2,place-chels,1,Chelsea,,,,,,,,,,,,DOT_ADMIN,2022/10/17 19:46:59+00,DOT_ADMIN,2022/10/17 19:46:59+00
-71.0447609996735,42.3978230003039,647372,door-chels-crnorththird,,Chelsea - Third St,Chelsea - Third St,,,42.397823,-71.044761,,,,level_in_street,2,place-chels,1,Chelsea,,,,,,,,,,,,DOT_ADMIN,2022/10/17 19:46:59+00,DOT_ADMIN,2022/10/17 19:46:59+00
-71.044659999723,42.3976760003562,647373,door-chels-croutthird,,Chelsea - Third St,Chelsea - Third St,,,42.397676,-71.04466,,,,level_in_street,2,place-chels,1,Chelsea,,,,,,,,,,,,DOT_ADMIN,2022/10/17 19:46:59+00,DOT_ADMIN,2022/10/17 19:46:59+00
-71.0409310005596,42.396715999662,647374,door-chels-mall,,"Chelsea - Buses 112, 114","Chelsea - Buses 112, 114",,,42.396716,-71.040931,,,,level_in_street,2,place-chels,1,Chelsea,,,,,,,,,,,,DOT_ADMIN,2022/10/17 19:46:59+00,DOT_ADMIN,2022/10/17 19:46:59+00
-71.0401229995286,42.3967710002741,647375,door-chels-sldropoff,,Chelsea - Everett Ave,Chelsea - Everett Ave,,,42.396771,-71.040123,,,,level_in_street,2,place-chels,1,Chelsea,,,,,,,,,,,,DOT_ADMIN,2022/10/17 19:46:59+00,DOT_ADMIN,2022/10/17 19:46:59+00
-71.0400910001533,42.396658000193,647376,door-chels-slsstat,,Chelsea - Everett Ave,Chelsea - Everett Ave,,,42.396658,-71.040091,,,,level_in_street,2,place-chels,1,Chelsea,,,,,,,,,,,,DOT_ADMIN,2022/10/17 19:46:59+00,DOT_ADMIN,2022/10/17 19:46:59+00
-71.1641460004966,42.3267990000853,647378,70172,70172,Chestnut Hill,Chestnut Hill - Green Line - Park Street & North,,Park Street & North,42.326799,-71.164146,RapidTransit,,https://www.mbta.com/stops/place-chhil,level_ground,0,place-chhil,2,Newton,,,0,,,,,,,,,DOT_ADMIN,2022/10/17 19:46:59+00,DOT_ADMIN,2022/10/17 19:46:59+00
-71.1647800004732,42.3267820004319,647379,70173,70173,Chestnut Hill,Chestnut Hill - Green Line - (D) Riverside,,Riverside,42.326782,-71.16478,RapidTransit,,https://www.mbta.com/stops/place-chhil,level_ground,0,place-chhil,2,Newton,,,0,,,,,,,,,DOT_ADMIN,2022/10/17 19:46:59+00,DOT_ADMIN,2022/10/17 19:46:59+00
-71.165472999609,42.3268080003854,647380,door-chhil-bc,,"Chestnut Hill - Shopping Center, Boston College","Chestnut Hill - Shopping Center, Boston College",,,42.326808,-71.165473,,,,level_1_in_street,2,place-chhil,2,Newton,,,,,,,,,,,,DOT_ADMIN,2022/10/17 19:46:59+00,DOT_ADMIN,2022/10/17 19:46:59+00
-71.1641749994047,42.3267359995534,647381,door-chhil-museum,,"Chestnut Hill - Brimmer and May, Longyear Museum","Chestnut Hill - Brimmer and May, Longyear Museum",,,42.326736,-71.164175,,,,level_ground,2,place-chhil,1,Newton,,,,,,,,,,,,DOT_ADMIN,2022/10/17 19:46:59+00,DOT_ADMIN,2022/10/17 19:46:59+00
-71.1643470001821,42.3269089996623,647382,door-chhil-parke,,Chestnut Hill - Parking Lot Access (East),Chestnut Hill - Parking Lot Access (East),,,42.326909,-71.164347,,,,level_ground,2,place-chhil,1,Newton,,,,,,,,,,,,DOT_ADMIN,2022/10/17 19:46:59+00,DOT_ADMIN,2022/10/17 19:46:59+00
-71.1648400002966,42.326831000022,647383,door-chhil-parkw,,Chestnut Hill - Parking Lot Access (West),Chestnut Hill - Parking Lot Access (West),,,42.326831,-71.16484,,,,level_ground,2,place-chhil,2,Newton,,,,,,,,,,,,DOT_ADMIN,2022/10/17 19:46:59+00,DOT_ADMIN,2022/10/17 19:46:59+00
-71.1525260002306,42.3387299998354,647385,70112,70112,Chestnut Hill Avenue,Chestnut Hill Avenue - Green Line - Park Street & North,,Park Street & North,42.33873,-71.152526,RapidTransit,,https://www.mbta.com/stops/place-chill,level_median,0,place-chill,2,Boston,,,0,,,,,,,,,DOT_ADMIN,2022/10/17 19:46:59+00,DOT_ADMIN,2022/10/17 19:46:59+00
-71.1530249996051,42.3382900000907,647386,70113,70113,Chestnut Hill Avenue,Chestnut Hill Avenue - Green Line - (B) Boston College,,Boston College,42.33829,-71.153025,RapidTransit,,https://www.mbta.com/stops/place-chill,level_median,0,place-chill,2,Boston,,,0,,,,,,,,,DOT_ADMIN,2022/10/17 19:46:59+00,DOT_ADMIN,2022/10/17 19:46:59+00
-71.0715049994536,42.3611869995636,647388,70073,70073,Charles/MGH,Charles/MGH - Red Line - Ashmont/Braintree,,Ashmont/Braintree,42.361187,-71.071505,RapidTransit,,https://www.mbta.com/stops/place-chmnl,level_1_platform,0,place-chmnl,1,Boston,,,1,,,,,,,,,DOT_ADMIN,2022/10/17 19:46:59+00,DOT_ADMIN,2022/10/17 19:46:59+00
-71.0716019999241,42.3612629996407,647389,70074,70074,Charles/MGH,Charles/MGH - Red Line - Alewife,,Alewife,42.361263,-71.071602,RapidTransit,,https://www.mbta.com/stops/place-chmnl,level_1_platform,0,place-chmnl,1,Boston,,,1,,,,,,,,,DOT_ADMIN,2022/10/17 19:46:59+00,DOT_ADMIN,2022/10/17 19:46:59+00
-71.0705700003885,42.3611169997613,647390,door-chmnl-main,,"Charles/MGH - Beacon Hill, Esplanade, Hospitals","Charles/MGH - Beacon Hill, Esplanade, Hospitals",,,42.361117,-71.07057,,,,level_in_street,2,place-chmnl,1,Boston,,,,,,,,,,,,DOT_ADMIN,2022/10/17 19:46:59+00,DOT_ADMIN,2022/10/17 19:46:59+00
-71.0627519998449,42.3525470001562,647392,70018,70018,Chinatown,Chinatown - Orange Line - Forest Hills,,Forest Hills,42.352547,-71.062752,RapidTransit,,https://www.mbta.com/stops/place-chncl,level_-1_platform,0,place-chncl,1,Boston,,,1,,,,,,,,,DOT_ADMIN,2022/10/17 19:46:59+00,DOT_ADMIN,2022/10/17 19:46:59+00
-71.0627519998449,42.3525470001562,647393,70019,70019,Chinatown,Chinatown - Orange Line - Oak Grove,,Oak Grove,42.352547,-71.062752,RapidTransit,,https://www.mbta.com/stops/place-chncl,level_-1_platform,0,place-chncl,1,Boston,,,1,,,,,,,,,DOT_ADMIN,2022/10/17 19:46:59+00,DOT_ADMIN,2022/10/17 19:46:59+00
-71.0630869994141,42.3524050001133,647394,door-chncl-fhelevator,,"Chinatown - Washington St, Essex St","Chinatown - Washington St, Essex St",,,42.352405,-71.063087,,,,level_in_street,2,place-chncl,1,Boston,,,,,,,,,,,,DOT_ADMIN,2022/10/17 19:46:59+00,DOT_ADMIN,2022/10/17 19:46:59+00
-71.0626779995672,42.352457000185,647395,door-chncl-foresthills,,"Chinatown - Washington St, Essex St","Chinatown - Washington St, Essex St",,,42.352457,-71.062678,,,,level_in_street,2,place-chncl,2,Boston,,,,,,,,,,,,DOT_ADMIN,2022/10/17 19:46:59+00,DOT_ADMIN,2022/10/17 19:46:59+00
-71.0624429996294,42.3526279998558,647396,door-chncl-ogelevator,,Chinatown - Elevator (Oak Grove),Chinatown - Elevator (Oak Grove),,,42.352628,-71.062443,,,,level_in_street,2,place-chncl,1,Boston,,,,,,,,,,,,DOT_ADMIN,2022/10/17 19:46:59+00,DOT_ADMIN,2022/10/17 19:46:59+00
-71.0625189998356,42.352252000358,647397,door-chncl-ogessex,,"Chinatown - Washington St, Essex St","Chinatown - Washington St, Essex St",,,42.352252,-71.062519,,,,level_in_street,2,place-chncl,2,Boston,,,,,,,,,,,,DOT_ADMIN,2022/10/17 19:46:59+00,DOT_ADMIN,2022/10/17 19:46:59+00
-71.1506329998039,42.3408080004427,647399,70114,70114,Chiswick Road,Chiswick Road - Green Line - Park Street & North,,Park Street & North,42.340808,-71.150633,RapidTransit,,https://www.mbta.com/stops/place-chswk,level_median,0,place-chswk,2,Boston,,,0,,,,,,,,,DOT_ADMIN,2022/10/17 19:46:59+00,DOT_ADMIN,2022/10/17 19:46:59+00
-71.1511399999658,42.3405400003622,647400,70115,70115,Chiswick Road,Chiswick Road - Green Line - (B) Boston College,,Boston College,42.34054,-71.15114,RapidTransit,,https://www.mbta.com/stops/place-chswk,level_median,0,place-chswk,2,Boston,,,0,,,,,,,,,DOT_ADMIN,2022/10/17 19:46:59+00,DOT_ADMIN,2022/10/17 19:46:59+00
-71.1492009996642,42.3362160002844,647402,70237,70237,Cleveland Circle,Cleveland Circle - Green Line - Exit Only,,Exit Only,42.336216,-71.149201,RapidTransit,,https://www.mbta.com/stops/place-clmnl,level_median,0,place-clmnl,1,Boston,,,0,,,,,,,,,DOT_ADMIN,2022/10/17 19:46:59+00,DOT_ADMIN,2022/10/17 19:46:59+00
-71.1487739998689,42.3362520001197,647403,70238,70238,Cleveland Circle,Cleveland Circle - Green Line - Park Street & North,,Park Street & North,42.336252,-71.148774,RapidTransit,,https://www.mbta.com/stops/place-clmnl,level_median,0,place-clmnl,1,Boston,,,0,,,,,,,,,DOT_ADMIN,2022/10/17 19:46:59+00,DOT_ADMIN,2022/10/17 19:46:59+00
-71.1036209996575,42.3653040001412,647405,70069,70069,Central,Central - Red Line - Ashmont/Braintree,,Ashmont/Braintree,42.365304,-71.103621,RapidTransit,,https://www.mbta.com/stops/place-cntsq,level_-1_platform,0,place-cntsq,1,Cambridge,,,1,,,,,,,,,DOT_ADMIN,2022/10/17 19:46:59+00,DOT_ADMIN,2022/10/17 19:46:59+00
-71.1035539994824,42.365378999914,647406,70070,70070,Central,Central - Red Line - Alewife,,Alewife,42.365379,-71.103554,RapidTransit,,https://www.mbta.com/stops/place-cntsq,level_-1_platform,0,place-cntsq,1,Cambridge,,,1,,,,,,,,,DOT_ADMIN,2022/10/17 19:46:59+00,DOT_ADMIN,2022/10/17 19:46:59+00
-71.1028109995201,42.3649910002243,647407,door-cntsq-essex,,Central - Essex St,Central - Essex St,,,42.364991,-71.102811,,,,level_in_street,2,place-cntsq,2,Cambridge,,,,,,,,,,,,DOT_ADMIN,2022/10/17 19:46:59+00,DOT_ADMIN,2022/10/17 19:46:59+00
-71.1035570001929,42.3651900003857,647408,door-cntsq-ibmass,,Central - Mass Ave,Central - Mass Ave,,,42.36519,-71.103557,,,,level_in_street,2,place-cntsq,1,Cambridge,,,,,,,,,,,,DOT_ADMIN,2022/10/17 19:46:59+00,DOT_ADMIN,2022/10/17 19:46:59+00
-71.1037489999561,42.3655409997085,647409,door-cntsq-obmass,,Central - Mass Ave,Central - Mass Ave,,,42.365541,-71.103749,,,,level_in_street,2,place-cntsq,1,Cambridge,,,,,,,,,,,,DOT_ADMIN,2022/10/17 19:46:59+00,DOT_ADMIN,2022/10/17 19:46:59+00
-71.102989000513,42.3648309999357,647410,door-cntsq-pearl,,Central - Pearl St,Central - Pearl St,,,42.364831,-71.102989,,,,level_in_street,2,place-cntsq,2,Cambridge,,,,,,,,,,,,DOT_ADMIN,2022/10/17 19:46:59+00,DOT_ADMIN,2022/10/17 19:46:59+00
-71.1041310004611,42.3657780003228,647411,door-cntsq-prospect,,Central - Prospect St,Central - Prospect St,,,42.365778,-71.104131,,,,level_in_street,2,place-cntsq,2,Cambridge,,,,,,,,,,,,DOT_ADMIN,2022/10/17 19:46:59+00,DOT_ADMIN,2022/10/17 19:46:59+00
-71.1043040002778,42.3656349998434,647412,door-cntsq-western,,Central - Western Ave,Central - Western Ave,,,42.365635,-71.104304,,,,level_in_street,2,place-cntsq,2,Cambridge,,,,,,,,,,,,DOT_ADMIN,2022/10/17 19:46:59+00,DOT_ADMIN,2022/10/17 19:46:59+00
-71.0780489999342,42.3498710003391,647414,70154,70154,Copley,Copley - Green Line - Park Street & North,,Park Street & North,42.349871,-71.078049,RapidTransit,,https://www.mbta.com/stops/place-coecl,level_-1_platform,0,place-coecl,1,Boston,,,0,,,,,,,,,DOT_ADMIN,2022/10/17 19:46:59+00,DOT_ADMIN,2022/10/17 19:46:59+00
-71.0773759996246,42.3501259995903,647415,70155,70155,Copley,"Copley - Green Line - Kenmore & West, (E) Heath Street",,"Kenmore & West, Heath Street",42.350126,-71.077376,RapidTransit,,https://www.mbta.com/stops/place-coecl,level_-1_platform,0,place-coecl,1,Boston,,,0,,,,,,,,,DOT_ADMIN,2022/10/17 19:46:59+00,DOT_ADMIN,2022/10/17 19:46:59+00
-71.0780259996195,42.3497989997553,647416,door-coecl-bpl,,Copley - Boylston St,Copley - Boylston St,,,42.349799,-71.078026,,,,level_in_street,2,place-coecl,2,Boston,,,,,,,,,,,,DOT_ADMIN,2022/10/17 19:46:59+00,DOT_ADMIN,2022/10/17 19:46:59+00
-71.077550999649,42.3501939997357,647417,door-coecl-church,,"Copley - Dartmouth St, Old South Church","Copley - Dartmouth St, Old South Church",,,42.350194,-71.077551,,,,level_in_street,2,place-coecl,1,Boston,,,,,,,,,,,,DOT_ADMIN,2022/10/17 19:46:59+00,DOT_ADMIN,2022/10/17 19:46:59+00
-71.0773819994658,42.3503120002438,647418,door-coecl-east,,Copley - Dartmouth St (East),Copley - Dartmouth St (East),,,42.350312,-71.077382,,,,level_in_street,2,place-coecl,2,Boston,,,,,,,,,,,,DOT_ADMIN,2022/10/17 19:46:59+00,DOT_ADMIN,2022/10/17 19:46:59+00
-71.1209149994206,42.3422739999187,647423,70219,70219,Coolidge Corner,Coolidge Corner - Green Line - (C) Cleveland Circle,,Cleveland Circle,42.342274,-71.120915,RapidTransit,,https://www.mbta.com/stops/place-cool,level_median,0,place-cool,1,Brookline,,,0,,,,,,,,,DOT_ADMIN,2022/10/17 19:46:59+00,DOT_ADMIN,2022/10/17 19:46:59+00
-71.1216849995818,42.3420279999896,647424,70220,70220,Coolidge Corner,Coolidge Corner - Green Line - Park Street & North,,Park Street & North,42.342028,-71.121685,RapidTransit,,https://www.mbta.com/stops/place-cool,level_median,0,place-cool,1,Brookline,,,0,,,,,,,,,DOT_ADMIN,2022/10/17 19:46:59+00,DOT_ADMIN,2022/10/17 19:46:59+00
-71.047045999923,42.3526109997791,647428,door-crtst-north,,"Courthouse - Fan Pier Blvd, Seaport Blvd","Courthouse - Fan Pier Blvd, Seaport Blvd",,,42.352611,-71.047046,,,,level_in_street,2,place-crtst,1,Boston,,,,,,,,,,,,DOT_ADMIN,2022/10/17 19:46:59+00,DOT_ADMIN,2022/10/17 19:46:59+00
-71.0469010003065,42.3522470002166,647429,door-crtst-south,,"Courthouse - Thomson Pl, Seaport Blvd","Courthouse - Thomson Pl, Seaport Blvd",,,42.352247,-71.046901,,,,level_in_street,2,place-crtst,1,Boston,,,,,,,,,,,,DOT_ADMIN,2022/10/17 19:46:59+00,DOT_ADMIN,2022/10/17 19:46:59+00
-71.1218150005661,42.3967400002384,647432,70063,70063,Davis,Davis - Red Line - Ashmont/Braintree,,Ashmont/Braintree,42.39674,-71.121815,RapidTransit,,https://www.mbta.com/stops/place-davis,level_-2_platform,0,place-davis,1,Somerville,,,1,,,,,,,,,DOT_ADMIN,2022/10/17 19:46:59+00,DOT_ADMIN,2022/10/17 19:46:59+00
-71.1218150005661,42.3967400002384,647433,70064,70064,Davis,Davis - Red Line - Alewife,,Alewife,42.39674,-71.121815,RapidTransit,,https://www.mbta.com/stops/place-davis,level_-2_platform,0,place-davis,1,Somerville,,,1,,,,,,,,,DOT_ADMIN,2022/10/17 19:46:59+00,DOT_ADMIN,2022/10/17 19:46:59+00
-71.1219889998979,42.3967419997748,647434,door-davis-busway,,"Davis - College Ave, Tufts University, Buses","Davis - College Ave, Tufts University, Buses",,,42.396742,-71.121989,,,,level_in_street,2,place-davis,1,Somerville,,,,,,,,,,,,DOT_ADMIN,2022/10/17 19:46:59+00,DOT_ADMIN,2022/10/17 19:46:59+00
-71.1231910001872,42.3969920000035,647435,door-davis-holland,,"Davis - Holland St, Buses","Davis - Holland St, Buses",,,42.396992,-71.123191,,,,level_in_street,2,place-davis,2,Somerville,,,,,,,,,,,,DOT_ADMIN,2022/10/17 19:46:59+00,DOT_ADMIN,2022/10/17 19:46:59+00
-71.1417529998333,42.3378070004139,647437,70233,70233,Dean Road,Dean Road - Green Line - (C) Cleveland Circle,,Cleveland Circle,42.337807,-71.141753,RapidTransit,,https://www.mbta.com/stops/place-denrd,level_median,0,place-denrd,2,Brookline,,,0,,,,,,,,,DOT_ADMIN,2022/10/17 19:46:59+00,DOT_ADMIN,2022/10/17 19:46:59+00
-71.1423089998236,42.3376280000197,647438,70234,70234,Dean Road,Dean Road - Green Line - Park Street & North,,Park Street & North,42.337628,-71.142309,RapidTransit,,https://www.mbta.com/stops/place-denrd,level_median,0,place-denrd,2,Brookline,,,0,,,,,,,,,DOT_ADMIN,2022/10/17 19:46:59+00,DOT_ADMIN,2022/10/17 19:46:59+00
-71.0602250005805,42.3555179998205,647440,70020,70020,Downtown Crossing,Downtown Crossing - Orange Line - Forest Hills,,Forest Hills,42.355518,-71.060225,RapidTransit,,https://www.mbta.com/stops/place-dwnxg,level_-1_orange_platform,0,place-dwnxg,1,Boston,,,1,,,,,,,,,DOT_ADMIN,2022/10/17 19:46:59+00,DOT_ADMIN,2022/10/17 19:46:59+00
-71.0602250005805,42.3555179998205,647441,70021,70021,Downtown Crossing,Downtown Crossing - Orange Line - Oak Grove,,Oak Grove,42.355518,-71.060225,RapidTransit,,https://www.mbta.com/stops/place-dwnxg,level_-1_orange_platform,0,place-dwnxg,1,Boston,,,1,,,,,,,,,DOT_ADMIN,2022/10/17 19:46:59+00,DOT_ADMIN,2022/10/17 19:46:59+00
-71.0602250005805,42.3555179998205,647442,70077,70077,Downtown Crossing,Downtown Crossing - Red Line - Ashmont/Braintree,,Ashmont/Braintree,42.355518,-71.060225,RapidTransit,,https://www.mbta.com/stops/place-dwnxg,level_-2_red_platform,0,place-dwnxg,1,Boston,,,1,,,,,,,,,DOT_ADMIN,2022/10/17 19:46:59+00,DOT_ADMIN,2022/10/17 19:46:59+00
-71.0602250005805,42.3555179998205,647443,70078,70078,Downtown Crossing,Downtown Crossing - Red Line - Alewife,,Alewife,42.355518,-71.060225,RapidTransit,,https://www.mbta.com/stops/place-dwnxg,level_-2_red_platform,0,place-dwnxg,1,Boston,,,1,,,,,,,,,DOT_ADMIN,2022/10/17 19:46:59+00,DOT_ADMIN,2022/10/17 19:46:59+00
-71.0594800005074,42.3548429998931,647444,door-dwnxg-101arch,,"Downtown Crossing - 101 Arch St, Summer St","Downtown Crossing - 101 Arch St, Summer St",,,42.354843,-71.05948,,,,level_-1_concourse,2,place-dwnxg,1,Boston,,,,,,,,,,,,DOT_ADMIN,2022/10/17 19:46:59+00,DOT_ADMIN,2022/10/17 19:46:59+00
-71.0595879994739,42.3543600002203,647445,door-dwnxg-chauncy,,Downtown Crossing - Chauncy St,Downtown Crossing - Chauncy St,,,42.35436,-71.059588,,,,level_in_street,2,place-dwnxg,2,Boston,,,,,,,,,,,,DOT_ADMIN,2022/10/17 19:46:59+00,DOT_ADMIN,2022/10/17 19:46:59+00
-71.0593259996236,42.3560639999006,647446,door-dwnxg-franklin,,Downtown Crossing - Franklin St,Downtown Crossing - Franklin St,,,42.356064,-71.059326,,,,level_in_street,2,place-dwnxg,1,Boston,,,,,,,,,,,,DOT_ADMIN,2022/10/17 19:46:59+00,DOT_ADMIN,2022/10/17 19:46:59+00
-71.0593659994829,42.3552289997346,647447,door-dwnxg-hawley,,Downtown Crossing - Hawley St (Escalator),Downtown Crossing - Hawley St (Escalator),,,42.355229,-71.059366,,,,level_in_street,2,place-dwnxg,2,Boston,,,,,,,,,,,,DOT_ADMIN,2022/10/17 19:46:59+00,DOT_ADMIN,2022/10/17 19:46:59+00
-71.0605209995975,42.355252999861,647448,door-dwnxg-macys,,Downtown Crossing - Macy's,Downtown Crossing - Macy's,,,42.355253,-71.060521,,,,level_-1_concourse,2,place-dwnxg,1,Boston,,,,,,,,,,,,DOT_ADMIN,2022/10/17 19:46:59+00,DOT_ADMIN,2022/10/17 19:46:59+00
-71.0600749994995,42.3552920003582,647449,door-dwnxg-rochebros,,Downtown Crossing - Roche Bros,Downtown Crossing - Roche Bros,,,42.355292,-71.060075,,,,level_-1_concourse,2,place-dwnxg,1,Boston,,,,,,,,,,,,DOT_ADMIN,2022/10/17 19:46:59+00,DOT_ADMIN,2022/10/17 19:46:59+00
-71.0603269997611,42.3555190002284,647450,door-dwnxg-summer,,"Downtown Crossing - Washington St, Summer St","Downtown Crossing - Washington St, Summer St",,,42.355519,-71.060327,,,,level_in_street,2,place-dwnxg,2,Boston,,,,,,,,,,,,DOT_ADMIN,2022/10/17 19:46:59+00,DOT_ADMIN,2022/10/17 19:46:59+00
-71.0601919995844,42.3553689996454,647451,door-dwnxg-summereast,,"Downtown Crossing - Summer St, Washington St","Downtown Crossing - Summer St, Washington St",,,42.355369,-71.060192,,,,level_in_street,2,place-dwnxg,2,Boston,,,,,,,,,,,,DOT_ADMIN,2022/10/17 19:46:59+00,DOT_ADMIN,2022/10/17 19:46:59+00
-71.0615470004919,42.3548769995656,647452,door-dwnxg-temple,,"Downtown Crossing - Temple Place, Lafaytette Place","Downtown Crossing - Temple Place, Lafaytette Place",,,42.354877,-71.061547,,,,level_in_street,2,place-dwnxg,2,Boston,,,,,,,,,,,,DOT_ADMIN,2022/10/17 19:46:59+00,DOT_ADMIN,2022/10/17 19:46:59+00
-71.0607199997144,42.3553620004003,647453,door-dwnxg-winter,,"Downtown Crossing - Washington St, Winter St","Downtown Crossing - Washington St, Winter St",,,42.355362,-71.06072,,,,level_in_street,2,place-dwnxg,1,Boston,,,,,,,,,,,,DOT_ADMIN,2022/10/17 19:46:59+00,DOT_ADMIN,2022/10/17 19:46:59+00
-71.216419999573,42.3188709995971,647455,70166,70166,Eliot,Eliot - Green Line - Park Street & North,,Park Street & North,42.318871,-71.21642,RapidTransit,,https://www.mbta.com/stops/place-eliot,level_ground,0,place-eliot,2,Newton,,,0,,,,,,,,,DOT_ADMIN,2022/10/17 19:46:59+00,DOT_ADMIN,2022/10/17 19:46:59+00
-71.2169489997292,42.319214000189,647456,70167,70167,Eliot,Eliot - Green Line - (D) Riverside,,Riverside,42.319214,-71.216949,RapidTransit,,https://www.mbta.com/stops/place-eliot,level_ground,0,place-eliot,2,Newton,,,0,,,,,,,,,DOT_ADMIN,2022/10/17 19:46:59+00,DOT_ADMIN,2022/10/17 19:46:59+00
-71.2154140002646,42.3183009998966,647457,door-eliot-boyle,,Eliot - Boylston St Eastbound,Eliot - Boylston St Eastbound,,,42.318301,-71.215414,,,,level_boylston_st,2,place-eliot,1,Newton,,,,,,,,,,,,DOT_ADMIN,2022/10/17 19:46:59+00,DOT_ADMIN,2022/10/17 19:46:59+00
-71.2154299995429,42.3185550000572,647458,door-eliot-boylwr,,Eliot - Boylston St Westbound (Ramp),Eliot - Boylston St Westbound (Ramp),,,42.318555,-71.21543,,,,level_boylston_st,2,place-eliot,1,Newton,,,,,,,,,,,,DOT_ADMIN,2022/10/17 19:46:59+00,DOT_ADMIN,2022/10/17 19:46:59+00
-71.2158310001123,42.3184880003978,647459,door-eliot-boylws,,Eliot - Boylston St Westbound (Stairs),Eliot - Boylston St Westbound (Stairs),,,42.318488,-71.215831,,,,level_boylston_st,2,place-eliot,2,Newton,,,,,,,,,,,,DOT_ADMIN,2022/10/17 19:46:59+00,DOT_ADMIN,2022/10/17 19:46:59+00
-71.2168779997387,42.3192720003417,647460,door-eliot-lincoln,,"Eliot - Lincoln St, Parking","Eliot - Lincoln St, Parking",,,42.319272,-71.216878,,,,level_in_street,2,place-eliot,2,Newton,,,,,,,,,,,,DOT_ADMIN,2022/10/17 19:46:59+00,DOT_ADMIN,2022/10/17 19:46:59+00
-71.2168310004506,42.3190240001308,647461,door-eliot-meredith,,Eliot - Meredith Ave,Eliot - Meredith Ave,,,42.319024,-71.216831,,,,level_in_street,2,place-eliot,1,Newton,,,,,,,,,,,,DOT_ADMIN,2022/10/17 19:46:59+00,DOT_ADMIN,2022/10/17 19:46:59+00
-71.1458669995085,42.3369640001159,647463,70235,70235,Englewood Avenue,Englewood Avenue - Green Line - (C) Cleveland Circle,,Cleveland Circle,42.336964,-71.145867,RapidTransit,,https://www.mbta.com/stops/place-engav,level_median,0,place-engav,2,Brookline,,,0,,,,,,,,,DOT_ADMIN,2022/10/17 19:46:59+00,DOT_ADMIN,2022/10/17 19:46:59+00
-71.1453680005955,42.3370110002436,647464,70236,70236,Englewood Avenue,Englewood Avenue - Green Line - Park Street & North,,Park Street & North,42.337011,-71.145368,RapidTransit,,https://www.mbta.com/stops/place-engav,level_median,0,place-engav,2,Brookline,,,0,,,,,,,,,DOT_ADMIN,2022/10/17 19:46:59+00,DOT_ADMIN,2022/10/17 19:46:59+00
-71.0870320000095,42.3798809996485,647466,70513,70513,East Somerville,East Somerville - Green Line - (E) Medford/Tufts,,Medford/Tufts,42.379881,-71.087032,,,https://www.mbta.com/stops/place-esomr,level_1_platform,0,place-esomr,1,Somerville,,,,,,,,,,,,DOT_ADMIN,2022/10/17 19:46:59+00,DOT_ADMIN,2022/10/17 19:46:59+00
-71.0868289996325,42.3796240001652,647467,70514,70514,East Somerville,East Somerville - Green Line - Copley & West,,Copley & West,42.379624,-71.086829,,,https://www.mbta.com/stops/place-esomr,level_1_platform,0,place-esomr,1,Somerville,,,,,,,,,,,,DOT_ADMIN,2022/10/17 19:46:59+00,DOT_ADMIN,2022/10/17 19:46:59+00
-71.1312279996617,42.33968999991,647472,70227,70227,Fairbanks Street,Fairbanks Street - Green Line - (C) Cleveland Circle,,Cleveland Circle,42.33969,-71.131228,RapidTransit,,https://www.mbta.com/stops/place-fbkst,level_median,0,place-fbkst,2,Brookline,,,0,,,,,,,,,DOT_ADMIN,2022/10/17 19:46:59+00,DOT_ADMIN,2022/10/17 19:46:59+00
-71.1310779994074,42.3396439999805,647473,70228,70228,Fairbanks Street,Fairbanks Street - Green Line - Park Street & North,,Park Street & North,42.339644,-71.131078,RapidTransit,,https://www.mbta.com/stops/place-fbkst,level_median,0,place-fbkst,2,Brookline,,,0,,,,,,,,,DOT_ADMIN,2022/10/17 19:46:59+00,DOT_ADMIN,2022/10/17 19:46:59+00
-71.1057209994391,42.3337399996749,647475,70251,70251,Fenwood Road,Fenwood Road - Green Line - (E) Heath Street,,Heath Street,42.33374,-71.105721,RapidTransit,,https://www.mbta.com/stops/place-fenwd,level_in_street,0,place-fenwd,2,Boston,,,0,,,,,,,,,DOT_ADMIN,2022/10/17 19:46:59+00,DOT_ADMIN,2022/10/17 19:46:59+00
-71.1055829998539,42.3337060002777,647476,70252,70252,Fenwood Road,Fenwood Road - Green Line - Park Street & North,,Park Street & North,42.333706,-71.105583,RapidTransit,,https://www.mbta.com/stops/place-fenwd,level_in_street,0,place-fenwd,2,Boston,,,0,,,,,,,,,DOT_ADMIN,2022/10/17 19:46:59+00,DOT_ADMIN,2022/10/17 19:46:59+00
-71.1042690001633,42.3453280000047,647478,70186,70186,Fenway,Fenway - Green Line - Park Street & North,,Park Street & North,42.345328,-71.104269,RapidTransit,,https://www.mbta.com/stops/place-fenwy,level_ground,0,place-fenwy,1,Boston,,,0,,,,,,,,,DOT_ADMIN,2022/10/17 19:46:59+00,DOT_ADMIN,2022/10/17 19:46:59+00
-71.1049680000602,42.3450289996743,647479,70187,70187,Fenway,Fenway - Green Line - (D) Riverside,,Riverside,42.345029,-71.104968,RapidTransit,,https://www.mbta.com/stops/place-fenwy,level_ground,0,place-fenwy,1,Boston,,,0,,,,,,,,,DOT_ADMIN,2022/10/17 19:46:59+00,DOT_ADMIN,2022/10/17 19:46:59+00
-71.1041159994892,42.3453930001078,647480,door-fenwy-longwood,,"Fenway - Fenway Park, Park Dr, Longwood","Fenway - Fenway Park, Park Dr, Longwood",,,42.345393,-71.104116,,,,level_ground,2,place-fenwy,1,Boston,,,,,,,,,,,,DOT_ADMIN,2022/10/17 19:46:59+00,DOT_ADMIN,2022/10/17 19:46:59+00
-71.1042299998376,42.3452980004171,647481,door-fenwy-parkdr,,Fenway - Park Dr (Stairs),Fenway - Park Dr (Stairs),,,42.345298,-71.10423,,,,level_1_in_street,2,place-fenwy,2,Boston,,,,,,,,,,,,DOT_ADMIN,2022/10/17 19:46:59+00,DOT_ADMIN,2022/10/17 19:46:59+00
-71.0620209995399,42.2999930001396,647484,70089,70089,Fields Corner,Fields Corner - Red Line - Ashmont,,Ashmont,42.299993,-71.062021,RapidTransit,,https://www.mbta.com/stops/place-fldcr,level_1_platform,0,place-fldcr,1,Boston,,,1,,,,,,,,,DOT_ADMIN,2022/10/17 19:46:59+00,DOT_ADMIN,2022/10/17 19:46:59+00
-71.0619450005767,42.2999350001649,647485,70090,70090,Fields Corner,Fields Corner - Red Line - Alewife,,Alewife,42.299935,-71.061945,RapidTransit,,https://www.mbta.com/stops/place-fldcr,level_1_platform,0,place-fldcr,1,Boston,,,1,,,,,,,,,DOT_ADMIN,2022/10/17 19:46:59+00,DOT_ADMIN,2022/10/17 19:46:59+00
-71.0614750000586,42.3000189997768,647486,door-fldcr-busway,,"Fields Corner - Busway, Street","Fields Corner - Busway, Street",,,42.300019,-71.061475,,,,level_ground,2,place-fldcr,1,Boston,,,,,,,,,,,,DOT_ADMIN,2022/10/17 19:46:59+00,DOT_ADMIN,2022/10/17 19:46:59+00
-71.0618679995479,42.3004630000898,647487,door-fldcr-charles,,Fields Corner - Charles St,Fields Corner - Charles St,,,42.300463,-71.061868,,,,level_0.5_ground,2,place-fldcr,1,Boston,,,,,,,,,,,,DOT_ADMIN,2022/10/17 19:46:59+00,DOT_ADMIN,2022/10/17 19:46:59+00
-71.1136860006013,42.3005230003385,647490,70001,70001,Forest Hills,Forest Hills - Orange Line,,Orange Line,42.300523,-71.113686,RapidTransit,,https://www.mbta.com/stops/place-forhl,level_-1_orange_platform,0,place-forhl,1,Boston,,,1,,,,,,,,,DOT_ADMIN,2022/10/17 19:46:59+00,DOT_ADMIN,2022/10/17 19:46:59+00
-71.114009000292,42.3006350000176,647492,Forest Hills-01,,Forest Hills,Forest Hills - Orange Line - Track 1,1,Track 1,42.300635,-71.114009,RapidTransit,,https://www.mbta.com/stops/place-forhl,level_-1_orange_platform,0,place-forhl,1,Boston,,,1,,,,,,,,,DOT_ADMIN,2022/10/17 19:46:59+00,DOT_ADMIN,2022/10/17 19:46:59+00
-71.114009000292,42.3006350000176,647493,Forest Hills-02,,Forest Hills,Forest Hills - Orange Line - Track 2,2,Track 2,42.300635,-71.114009,RapidTransit,,https://www.mbta.com/stops/place-forhl,level_-1_orange_platform,0,place-forhl,1,Boston,,,1,,,,,,,,,DOT_ADMIN,2022/10/17 19:46:59+00,DOT_ADMIN,2022/10/17 19:46:59+00
-71.1138200004921,42.3009339997837,647497,door-forhl-arborway,,"Forest Hills - Arboretum, Washington St, South St","Forest Hills - Arboretum, Washington St, South St",,,42.300934,-71.11382,,,,level_washington_st,2,place-forhl,1,Boston,,,,,,,,,,,,DOT_ADMIN,2022/10/17 19:46:59+00,DOT_ADMIN,2022/10/17 19:46:59+00
-71.1136590001599,42.300572000166,647498,door-forhl-lower,,"Forest Hills - Hyde Park Ave, Franklin Park, Zoo, Parking","Forest Hills - Hyde Park Ave, Franklin Park, Zoo, Parking",,,42.300572,-71.113659,,,,level_hyde_park_ave,2,place-forhl,1,Boston,,,,,,,,,,,,DOT_ADMIN,2022/10/17 19:46:59+00,DOT_ADMIN,2022/10/17 19:46:59+00
-71.1135840001799,42.3019800001662,647499,door-forhl-south,,"Forest Hills - Arborway, Southwest Corridor Park","Forest Hills - Arborway, Southwest Corridor Park",,,42.30198,-71.113584,,,,level_washington_st,2,place-forhl,1,Boston,,,,,,,,,,,,DOT_ADMIN,2022/10/17 19:46:59+00,DOT_ADMIN,2022/10/17 19:46:59+00
-71.1141490000325,42.3004659997379,647500,door-forhl-upper,,Forest Hills - Washington St,Forest Hills - Washington St,,,42.300466,-71.114149,,,,level_washington_st,2,place-forhl,1,Boston,,,,,,,,,,,,DOT_ADMIN,2022/10/17 19:46:59+00,DOT_ADMIN,2022/10/17 19:46:59+00
-71.096956000163,42.3880429996212,647502,70505,70505,Gilman Square,Gilman Square - Green Line - (E) Medford/Tufts,,Medford/Tufts,42.388043,-71.096956,,,https://www.mbta.com/stops/place-gilmn,level_-1_platform,0,place-gilmn,1,Somerville,,,,,,,,,,,,DOT_ADMIN,2022/10/17 19:46:59+00,DOT_ADMIN,2022/10/17 19:46:59+00
-71.0966290004177,42.3878310002924,647503,70506,70506,Gilman Square,Gilman Square - Green Line - Copley & West,,Copley & West,42.387831,-71.096629,,,https://www.mbta.com/stops/place-gilmn,level_-1_platform,0,place-gilmn,1,Somerville,,,,,,,,,,,,DOT_ADMIN,2022/10/17 19:46:59+00,DOT_ADMIN,2022/10/17 19:46:59+00
-71.0592149998614,42.3597049998996,647505,70039,70039,Government Center,Government Center - Blue Line - Bowdoin,,Bowdoin,42.359705,-71.059215,RapidTransit,,https://www.mbta.com/stops/place-gover,level_-2_blue_platform,0,place-gover,1,Boston,,,1,,,,,,,,,DOT_ADMIN,2022/10/17 19:46:59+00,DOT_ADMIN,2022/10/17 19:46:59+00
-71.0592149998614,42.3597049998996,647506,70040,70040,Government Center,Government Center - Blue Line - Wonderland,,Wonderland,42.359705,-71.059215,RapidTransit,,https://www.mbta.com/stops/place-gover,level_-2_blue_platform,0,place-gover,1,Boston,,,1,,,,,,,,,DOT_ADMIN,2022/10/17 19:46:59+00,DOT_ADMIN,2022/10/17 19:46:59+00
-71.0592149998614,42.3597049998996,647507,70201,70201,Government Center,Government Center - Green Line - North Station & North,,North Station & North,42.359705,-71.059215,RapidTransit,,https://www.mbta.com/stops/place-gover,level_-1_green_platform,0,place-gover,1,Boston,,,0,,,,,,,,,DOT_ADMIN,2022/10/17 19:46:59+00,DOT_ADMIN,2022/10/17 19:46:59+00
-71.0592149998614,42.3597049998996,647508,70202,70202,Government Center,Government Center - Green Line - Copley & West,,Copley & West,42.359705,-71.059215,RapidTransit,,https://www.mbta.com/stops/place-gover,level_-1_green_platform,0,place-gover,1,Boston,,,0,,,,,,,,,DOT_ADMIN,2022/10/17 19:46:59+00,DOT_ADMIN,2022/10/17 19:46:59+00
-71.0592149998614,42.3597049998996,647509,Government Center-Brattle,,Government Center,Government Center - Green Line - Loop Platform,,Loop Platform,42.359705,-71.059215,RapidTransit,,https://www.mbta.com/stops/place-gover,level_-1_green_platform,0,place-gover,1,Boston,,,0,,,,,,,,,DOT_ADMIN,2022/10/17 19:46:59+00,DOT_ADMIN,2022/10/17 19:46:59+00
-71.0593600000606,42.3596989996251,647510,door-gover-main,,Government Center - City Hall Plaza,Government Center - City Hall Plaza,,,42.359699,-71.05936,,,,level_in_street,2,place-gover,1,Boston,,,,,,,,,,,,DOT_ADMIN,2022/10/17 19:46:59+00,DOT_ADMIN,2022/10/17 19:46:59+00
-71.1345000002781,42.3487469998144,647512,70128,70128,Griggs Street,Griggs Street - Green Line - Park Street & North,,Park Street & North,42.348747,-71.1345,RapidTransit,,https://www.mbta.com/stops/place-grigg,level_median,0,place-grigg,2,Boston,,,0,,,,,,,,,DOT_ADMIN,2022/10/17 19:46:59+00,DOT_ADMIN,2022/10/17 19:46:59+00
-71.1343050003548,42.3489190003266,647513,70129,70129,Griggs Street,Griggs Street - Green Line - (B) Boston College,,Boston College,42.348919,-71.134305,RapidTransit,,https://www.mbta.com/stops/place-grigg,level_median,0,place-grigg,2,Boston,,,0,,,,,,,,,DOT_ADMIN,2022/10/17 19:46:59+00,DOT_ADMIN,2022/10/17 19:46:59+00
-71.1080589994915,42.3098319998312,647515,70002,70002,Green Street,Green Street - Orange Line - Forest Hills,,Forest Hills,42.309832,-71.108059,RapidTransit,,https://www.mbta.com/stops/place-grnst,level_-1_platform,0,place-grnst,1,Boston,,,1,,,,,,,,,DOT_ADMIN,2022/10/17 19:46:59+00,DOT_ADMIN,2022/10/17 19:46:59+00
-71.1079879994941,42.30979599963,647516,70003,70003,Green Street,Green Street - Orange Line - Oak Grove,,Oak Grove,42.309796,-71.107988,RapidTransit,,https://www.mbta.com/stops/place-grnst,level_-1_platform,0,place-grnst,1,Boston,,,1,,,,,,,,,DOT_ADMIN,2022/10/17 19:46:59+00,DOT_ADMIN,2022/10/17 19:46:59+00
-71.1075189996647,42.3105560001761,647517,door-grnst-main,,"Green Street - Woolsey Sq, Green St, Amory St","Green Street - Woolsey Sq, Green St, Amory St",,,42.310556,-71.107519,,,,level_in_street,2,place-grnst,1,Boston,,,,,,,,,,,,DOT_ADMIN,2022/10/17 19:46:59+00,DOT_ADMIN,2022/10/17 19:46:59+00
-71.0582899997818,42.3630210002022,647519,70024,70024,Haymarket,Haymarket - Orange Line - Forest Hills,,Forest Hills,42.363021,-71.05829,RapidTransit,,https://www.mbta.com/stops/place-haecl,level_-1_orange_platform,0,place-haecl,1,Boston,,,1,,,,,,,,,DOT_ADMIN,2022/10/17 19:46:59+00,DOT_ADMIN,2022/10/17 19:46:59+00
-71.0582899997818,42.3630210002022,647520,70025,70025,Haymarket,Haymarket - Orange Line - Oak Grove,,Oak Grove,42.363021,-71.05829,RapidTransit,,https://www.mbta.com/stops/place-haecl,level_-1_orange_platform,0,place-haecl,1,Boston,,,1,,,,,,,,,DOT_ADMIN,2022/10/17 19:46:59+00,DOT_ADMIN,2022/10/17 19:46:59+00
-71.0582899997818,42.3630210002022,647521,70203,70203,Haymarket,Haymarket - Green Line - North Station & North,,North Station & North,42.363021,-71.05829,RapidTransit,,https://www.mbta.com/stops/place-haecl,level_-1_green_platform,0,place-haecl,1,Boston,,,0,,,,,,,,,DOT_ADMIN,2022/10/17 19:46:59+00,DOT_ADMIN,2022/10/17 19:46:59+00
-71.0582899997818,42.3630210002022,647522,70204,70204,Haymarket,Haymarket - Green Line - Copley & West,,Copley & West,42.363021,-71.05829,RapidTransit,,https://www.mbta.com/stops/place-haecl,level_-1_green_platform,0,place-haecl,1,Boston,,,0,,,,,,,,,DOT_ADMIN,2022/10/17 19:46:59+00,DOT_ADMIN,2022/10/17 19:46:59+00
-71.058138000337,42.3628999998764,647523,door-haecl-busway,,"Haymarket - RMV, Sudbury St, New Chardon St","Haymarket - RMV, Sudbury St, New Chardon St",,,42.3629,-71.058138,,,,level_in_street,2,place-haecl,1,Boston,,,,,,,,,,,,DOT_ADMIN,2022/10/17 19:46:59+00,DOT_ADMIN,2022/10/17 19:46:59+00
-71.0578049998059,42.3619770004378,647524,door-haecl-congress,,"Haymarket - RMV, City Hall, Faneuil Hall Marketplace","Haymarket - RMV, City Hall, Faneuil Hall Marketplace",,,42.361977,-71.057805,,,,level_in_street,2,place-haecl,1,Boston,,,,,,,,,,,,DOT_ADMIN,2022/10/17 19:46:59+00,DOT_ADMIN,2022/10/17 19:46:59+00
-71.1189560001659,42.3733619995845,647528,70067,70067,Harvard,Harvard - Red Line - Ashmont/Braintree,,Ashmont/Braintree,42.373362,-71.118956,RapidTransit,,https://www.mbta.com/stops/place-harsq,level_-2_southbound_platform,0,place-harsq,1,Cambridge,,,1,,,,,,,,,DOT_ADMIN,2022/10/17 19:46:59+00,DOT_ADMIN,2022/10/17 19:46:59+00
-71.1189560001659,42.3733619995845,647529,70068,70068,Harvard,Harvard - Red Line - Alewife,,Alewife,42.373362,-71.118956,RapidTransit,,https://www.mbta.com/stops/place-harsq,level_-1_alewife_platform,0,place-harsq,1,Cambridge,,,1,,,,,,,,,DOT_ADMIN,2022/10/17 19:46:59+00,DOT_ADMIN,2022/10/17 19:46:59+00
-71.1205450000204,42.3733100002856,647530,door-harsq-brattle,,Harvard - Brattle Square,Harvard - Brattle Square,,,42.37331,-71.120545,,,,level_in_street,2,place-harsq,1,Cambridge,,,,,,,,,,,,DOT_ADMIN,2022/10/17 19:46:59+00,DOT_ADMIN,2022/10/17 19:46:59+00
-71.1189560003944,42.3743169998794,647531,door-harsq-church,,"Harvard - Church St, Harvard Square","Harvard - Church St, Harvard Square",,,42.374317,-71.118956,,,,level_in_street,2,place-harsq,2,Cambridge,,,,,,,,,,,,DOT_ADMIN,2022/10/17 19:46:59+00,DOT_ADMIN,2022/10/17 19:46:59+00
-71.1190040000694,42.3733710002675,647532,door-harsq-square,,Harvard - Harvard Square,Harvard - Harvard Square,,,42.373371,-71.119004,,,,level_in_street,2,place-harsq,1,Cambridge,,,,,,,,,,,,DOT_ADMIN,2022/10/17 19:46:59+00,DOT_ADMIN,2022/10/17 19:46:59+00
-71.11866899996,42.3743839996362,647533,door-harsq-yard,,"Harvard - Church St, Harvard Yard","Harvard - Church St, Harvard Yard",,,42.374384,-71.118669,,,,level_in_street,2,place-harsq,2,Cambridge,,,,,,,,,,,,DOT_ADMIN,2022/10/17 19:46:59+00,DOT_ADMIN,2022/10/17 19:46:59+00
-71.1312980004747,42.3502630003597,647535,70130,70130,Harvard Avenue,Harvard Avenue - Green Line - Park Street & North,,Park Street & North,42.350263,-71.131298,RapidTransit,,https://www.mbta.com/stops/place-harvd,level_median,0,place-harvd,1,Boston,,,0,,,,,,,,,DOT_ADMIN,2022/10/17 19:46:59+00,DOT_ADMIN,2022/10/17 19:46:59+00
-71.1307270003274,42.3506020003452,647536,70131,70131,Harvard Avenue,Harvard Avenue - Green Line - (B) Boston College,,Boston College,42.350602,-71.130727,RapidTransit,,https://www.mbta.com/stops/place-harvd,level_median,0,place-harvd,1,Boston,,,0,,,,,,,,,DOT_ADMIN,2022/10/17 19:46:59+00,DOT_ADMIN,2022/10/17 19:46:59+00
-71.1102520005487,42.3283160000583,647538,70260,70260,Heath Street,Heath Street - Green Line,,Green Line,42.328316,-71.110252,RapidTransit,,https://www.mbta.com/stops/place-hsmnl,level_ground,0,place-hsmnl,1,Boston,,,0,,,,,,,,,DOT_ADMIN,2022/10/17 19:46:59+00,DOT_ADMIN,2022/10/17 19:46:59+00
-71.1117610000169,42.3447580003929,647540,70213,70213,Hawes Street,Hawes Street - Green Line - (C) Cleveland Circle,,Cleveland Circle,42.344758,-71.111761,RapidTransit,,https://www.mbta.com/stops/place-hwsst,level_median,0,place-hwsst,2,Brookline,,,0,,,,,,,,,DOT_ADMIN,2022/10/17 19:46:59+00,DOT_ADMIN,2022/10/17 19:46:59+00
-71.1111570001237,42.3448670003428,647541,70214,70214,Hawes Street,Hawes Street - Green Line - Park Street & North,,Park Street & North,42.344867,-71.111157,RapidTransit,,https://www.mbta.com/stops/place-hwsst,level_median,0,place-hwsst,2,Brookline,,,0,,,,,,,,,DOT_ADMIN,2022/10/17 19:46:59+00,DOT_ADMIN,2022/10/17 19:46:59+00
-71.0879029999983,42.3478879995576,647543,70152,70152,Hynes Convention Center,Hynes Convention Center - Green Line - Park Street & North,,Park Street & North,42.347888,-71.087903,RapidTransit,,https://www.mbta.com/stops/place-hymnl,level_-2_platform,0,place-hymnl,2,Boston,,,0,,,,,,,,,DOT_ADMIN,2022/10/17 19:46:59+00,DOT_ADMIN,2022/10/17 19:46:59+00
-71.0879029999983,42.3478879995576,647544,70153,70153,Hynes Convention Center,Hynes Convention Center - Green Line - Kenmore & West,,Kenmore & West,42.347888,-71.087903,RapidTransit,,https://www.mbta.com/stops/place-hymnl,level_-2_platform,0,place-hymnl,2,Boston,,,0,,,,,,,,,DOT_ADMIN,2022/10/17 19:46:59+00,DOT_ADMIN,2022/10/17 19:46:59+00
-71.0878250003812,42.3478370002771,647545,door-hymnl-mass,,"Hynes Convention Center - Massachusetts Ave, Buses","Hynes Convention Center - Massachusetts Ave, Buses",,,42.347837,-71.087825,,,,level_in_street,2,place-hymnl,2,Boston,,,,,,,,,,,,DOT_ADMIN,2022/10/17 19:46:59+00,DOT_ADMIN,2022/10/17 19:46:59+00
-71.0875549996304,42.3481509999583,647546,door-hymnl-newbury,,Hynes Convention Center - Newbury St,Hynes Convention Center - Newbury St,,,42.348151,-71.087555,,,,level_in_street,2,place-hymnl,2,Boston,,,,,,,,,,,,DOT_ADMIN,2022/10/17 19:46:59+00,DOT_ADMIN,2022/10/17 19:46:59+00
-71.0995919998401,42.3231319999842,647549,70006,70006,Jackson Square,Jackson Square - Orange Line - Forest Hills,,Forest Hills,42.323132,-71.099592,RapidTransit,,https://www.mbta.com/stops/place-jaksn,level_-1_platform,0,place-jaksn,1,Boston,,,1,,,,,,,,,DOT_ADMIN,2022/10/17 19:46:59+00,DOT_ADMIN,2022/10/17 19:46:59+00
-71.0995919998401,42.3231319999842,647550,70007,70007,Jackson Square,Jackson Square - Orange Line - Oak Grove,,Oak Grove,42.323132,-71.099592,RapidTransit,,https://www.mbta.com/stops/place-jaksn,level_-1_platform,0,place-jaksn,1,Boston,,,1,,,,,,,,,DOT_ADMIN,2022/10/17 19:46:59+00,DOT_ADMIN,2022/10/17 19:46:59+00
-71.0998790003566,42.3230140001485,647551,door-jaksn-main,,"Jackson Square - Centre St, Busway, Park","Jackson Square - Centre St, Busway, Park",,,42.323014,-71.099879,,,,level_ground,2,place-jaksn,1,Boston,,,,,,,,,,,,DOT_ADMIN,2022/10/17 19:46:59+00,DOT_ADMIN,2022/10/17 19:46:59+00
-71.052514000381,42.3206319998973,647554,70085,70085,JFK/UMass,JFK/UMass - Red Line - Ashmont,,Ashmont,42.320632,-71.052514,RapidTransit,,https://www.mbta.com/stops/place-jfk,level_0_red_platform,0,place-jfk,1,Boston,,,1,,,,,,,,,DOT_ADMIN,2022/10/17 19:46:59+00,DOT_ADMIN,2022/10/17 19:46:59+00
-71.0524730004035,42.3206369998742,647555,70086,70086,JFK/UMass,JFK/UMass - Red Line - Alewife (from Ashmont),,Alewife (from Ashmont),42.320637,-71.052473,RapidTransit,,https://www.mbta.com/stops/place-jfk,level_0_red_platform,0,place-jfk,1,Boston,,,1,,,,,,,,,DOT_ADMIN,2022/10/17 19:46:59+00,DOT_ADMIN,2022/10/17 19:46:59+00
-71.052287000354,42.3204179999129,647556,70095,70095,JFK/UMass,JFK/UMass - Red Line - Braintree,,Braintree,42.320418,-71.052287,RapidTransit,,https://www.mbta.com/stops/place-jfk,level_0_red_platform,0,place-jfk,1,Boston,,,1,,,,,,,,,DOT_ADMIN,2022/10/17 19:46:59+00,DOT_ADMIN,2022/10/17 19:46:59+00
-71.0522149994414,42.3204340004231,647557,70096,70096,JFK/UMass,JFK/UMass - Red Line - Alewife (from Braintree),,Alewife (from Braintree),42.320434,-71.052215,RapidTransit,,https://www.mbta.com/stops/place-jfk,level_0_red_platform,0,place-jfk,1,Boston,,,1,,,,,,,,,DOT_ADMIN,2022/10/17 19:46:59+00,DOT_ADMIN,2022/10/17 19:46:59+00
-71.0515450002939,42.3204860003018,647559,door-jfk-busway,,"JFK/UMass - Busway, JFK Library, Mount Vernon St (Ramp)","JFK/UMass - Busway, JFK Library, Mount Vernon St (Ramp)",,,42.320486,-71.051545,,,,level_ground,2,place-jfk,1,Boston,,,,,,,,,,,,DOT_ADMIN,2022/10/17 19:46:59+00,DOT_ADMIN,2022/10/17 19:46:59+00
-71.0525829998873,42.3213579999951,647560,door-jfk-columbia,,JFK/UMass - Columbia Rd,JFK/UMass - Columbia Rd,,,42.321358,-71.052583,,,,level_columbia_rd,2,place-jfk,1,Boston,,,,,,,,,,,,DOT_ADMIN,2022/10/17 19:46:59+00,DOT_ADMIN,2022/10/17 19:46:59+00
-71.0516230002902,42.320828999662,647561,door-jfk-oldcolony,,"JFK/UMass - Busway, JFK Library, Mount Vernon St (Stairs)","JFK/UMass - Busway, JFK Library, Mount Vernon St (Stairs)",,,42.320829,-71.051623,,,,level_ground,2,place-jfk,2,Boston,,,,,,,,,,,,DOT_ADMIN,2022/10/17 19:46:59+00,DOT_ADMIN,2022/10/17 19:46:59+00
-71.0527130002024,42.3205970002361,647562,door-jfk-sydneyn,,JFK/UMass - Sydney St (North),JFK/UMass - Sydney St (North),,,42.320597,-71.052713,,,,level_in_street,2,place-jfk,2,Boston,,,,,,,,,,,,DOT_ADMIN,2022/10/17 19:46:59+00,DOT_ADMIN,2022/10/17 19:46:59+00
-71.05260200009,42.3198949997333,647563,door-jfk-sydneys,,JFK/UMass - Sydney St (South),JFK/UMass - Sydney St (South),,,42.319895,-71.052602,,,,level_in_street,2,place-jfk,2,Boston,,,,,,,,,,,,DOT_ADMIN,2022/10/17 19:46:59+00,DOT_ADMIN,2022/10/17 19:46:59+00
-71.0951690003072,42.3489489998777,647565,70150,70150,Kenmore,Kenmore - Green Line - Park Street & North,,Park Street & North,42.348949,-71.095169,RapidTransit,,https://www.mbta.com/stops/place-kencl,level_-2_platform,0,place-kencl,1,Boston,,,0,,,,,,,,,DOT_ADMIN,2022/10/17 19:46:59+00,DOT_ADMIN,2022/10/17 19:46:59+00
-71.0951690003072,42.3489489998777,647566,70151,70151,Kenmore,"Kenmore - Green Line - (C) Cleveland Circle, (D) Riverside",,"Cleveland Circle, Riverside",42.348949,-71.095169,RapidTransit,,https://www.mbta.com/stops/place-kencl,level_-2_platform,0,place-kencl,1,Boston,,,0,,,,,,,,,DOT_ADMIN,2022/10/17 19:46:59+00,DOT_ADMIN,2022/10/17 19:46:59+00
-71.0951690003072,42.3489489998777,647567,71150,71150,Kenmore,Kenmore - Green Line - Park Street & North,,Park Street & North,42.348949,-71.095169,RapidTransit,,https://www.mbta.com/stops/place-kencl,level_-2_platform,0,place-kencl,1,Boston,,,0,,,,,,,,,DOT_ADMIN,2022/10/17 19:46:59+00,DOT_ADMIN,2022/10/17 19:46:59+00
-71.0951690003072,42.3489489998777,647568,71151,71151,Kenmore,Kenmore - Green Line - (B) Boston College,,Boston College,42.348949,-71.095169,RapidTransit,,https://www.mbta.com/stops/place-kencl,level_-2_platform,0,place-kencl,1,Boston,,,0,,,,,,,,,DOT_ADMIN,2022/10/17 19:46:59+00,DOT_ADMIN,2022/10/17 19:46:59+00
-71.0955490005326,42.3492730003765,647570,door-kencl-beacon,,"Kenmore - Boston University, Beacon St","Kenmore - Boston University, Beacon St",,,42.349273,-71.095549,,,,level_in_street,2,place-kencl,2,Boston,,,,,,,,,,,,DOT_ADMIN,2022/10/17 19:46:59+00,DOT_ADMIN,2022/10/17 19:46:59+00
-71.0954199998245,42.3488820004514,647571,door-kencl-busway,,"Kenmore - Busway, Commonwealth Ave","Kenmore - Busway, Commonwealth Ave",,,42.348882,-71.09542,,,,level_ground,2,place-kencl,1,Boston,,,,,,,,,,,,DOT_ADMIN,2022/10/17 19:46:59+00,DOT_ADMIN,2022/10/17 19:46:59+00
-71.0955199998518,42.3486160003196,647572,door-kencl-commonwealth,,"Kenmore - Fenway Park, Commonwealth Ave","Kenmore - Fenway Park, Commonwealth Ave",,,42.348616,-71.09552,,,,level_in_street,2,place-kencl,1,Boston,,,,,,,,,,,,DOT_ADMIN,2022/10/17 19:46:59+00,DOT_ADMIN,2022/10/17 19:46:59+00
-71.085604999992,42.3623550000496,647574,70071,70071,Kendall/MIT,Kendall/MIT - Red Line - Ashmont/Braintree,,Ashmont/Braintree,42.362355,-71.085605,RapidTransit,,https://www.mbta.com/stops/place-knncl,level_-1_platform,0,place-knncl,1,Cambridge,,,1,,,,,,,,,DOT_ADMIN,2022/10/17 19:46:59+00,DOT_ADMIN,2022/10/17 19:46:59+00
-71.0855910002781,42.3624340003456,647575,70072,70072,Kendall/MIT,Kendall/MIT - Red Line - Alewife,,Alewife,42.362434,-71.085591,RapidTransit,,https://www.mbta.com/stops/place-knncl,level_-1_platform,0,place-knncl,1,Cambridge,,,1,,,,,,,,,DOT_ADMIN,2022/10/17 19:46:59+00,DOT_ADMIN,2022/10/17 19:46:59+00
-71.0861670001557,42.3625879997923,647576,door-knncl-nbmain,,"Kendall/MIT - Main St, Buses, Cambridge Center","Kendall/MIT - Main St, Buses, Cambridge Center",,,42.362588,-71.086167,,,,level_in_street,2,place-knncl,1,Cambridge,,,,,,,,,,,,DOT_ADMIN,2022/10/17 19:46:59+00,DOT_ADMIN,2022/10/17 19:46:59+00
-71.0848369994351,42.3624390001863,647577,door-knncl-nbsecond,,"Kendall/MIT - Main St, Third St","Kendall/MIT - Main St, Third St",,,42.362439,-71.084837,,,,level_in_street,2,place-knncl,2,Cambridge,,,,,,,,,,,,DOT_ADMIN,2022/10/17 19:46:59+00,DOT_ADMIN,2022/10/17 19:46:59+00
-71.0862659998698,42.3623090000344,647578,door-knncl-sbmain,,"Kendall/MIT - Buses, Main St","Kendall/MIT - Buses, Main St",,,42.362309,-71.086266,,,,level_in_street,2,place-knncl,1,Cambridge,,,,,,,,,,,,DOT_ADMIN,2022/10/17 19:46:59+00,DOT_ADMIN,2022/10/17 19:46:59+00
-71.0848619997001,42.3622319997369,647579,door-knncl-sbsecond,,"Kendall/MIT - Main St, Third St","Kendall/MIT - Main St, Third St",,,42.362232,-71.084862,,,,level_in_street,2,place-knncl,2,Cambridge,,,,,,,,,,,,DOT_ADMIN,2022/10/17 19:46:59+00,DOT_ADMIN,2022/10/17 19:46:59+00
-71.1140969997896,42.3441170004228,647581,70215,70215,Kent Street,Kent Street - Green Line - (C) Cleveland Circle,,Cleveland Circle,42.344117,-71.114097,RapidTransit,,https://www.mbta.com/stops/place-kntst,level_median,0,place-kntst,2,Brookline,,,0,,,,,,,,,DOT_ADMIN,2022/10/17 19:46:59+00,DOT_ADMIN,2022/10/17 19:46:59+00
-71.1145690005975,42.3439269999293,647582,70216,70216,Kent Street,Kent Street - Green Line - Park Street & North,,Park Street & North,42.343927,-71.114569,RapidTransit,,https://www.mbta.com/stops/place-kntst,level_median,0,place-kntst,2,Brookline,,,0,,,,,,,,,DOT_ADMIN,2022/10/17 19:46:59+00,DOT_ADMIN,2022/10/17 19:46:59+00
-71.1670289993958,42.3401489997242,647584,70106,70106,Boston College,Boston College - Green Line - Park Street & North,,Park Street & North,42.340149,-71.167029,RapidTransit,,https://www.mbta.com/stops/place-lake,level_ground,0,place-lake,1,Boston,,,0,,,,,,,,,DOT_ADMIN,2022/10/17 19:46:59+00,DOT_ADMIN,2022/10/17 19:46:59+00
-71.1668490002968,42.3402399998938,647585,70107,70107,Boston College,Boston College - Green Line - Exit Only,,Exit Only,42.34024,-71.166849,RapidTransit,,https://www.mbta.com/stops/place-lake,level_ground,0,place-lake,1,Boston,,,0,,,,,,,,,DOT_ADMIN,2022/10/17 19:46:59+00,DOT_ADMIN,2022/10/17 19:46:59+00
-71.0764570005078,42.371565999936,647588,70501,70501,Lechmere,"Lechmere - Green Line - (D) Union Square, (E) Medford/Tufts",,"Union Square, Medford/Tufts",42.371566,-71.076457,RapidTransit,,https://www.mbta.com/stops/place-lech,level_1_platform,0,place-lech,1,Cambridge,,,0,,,,,,,,,DOT_ADMIN,2022/10/17 19:46:59+00,DOT_ADMIN,2022/10/17 19:46:59+00
-71.0758600001384,42.370989000116,647589,70502,70502,Lechmere,Lechmere - Green Line - Copley & West,,Copley & West,42.370989,-71.07586,RapidTransit,,https://www.mbta.com/stops/place-lech,level_1_platform,0,place-lech,1,Cambridge,,,0,,,,,,,,,DOT_ADMIN,2022/10/17 19:46:59+00,DOT_ADMIN,2022/10/17 19:46:59+00
-71.076881000297,42.3717329997907,647590,door-lech-busway,,Lechmere - Busway,Lechmere - Busway,,,42.371733,-71.076881,,,,level_ground,2,place-lech,1,Cambridge,,,,,,,,,,,,DOT_ADMIN,2022/10/17 19:46:59+00,DOT_ADMIN,2022/10/17 19:46:59+00
-71.0765839997127,42.3715719997427,647591,door-lech-first,,Lechmere - North First St,Lechmere - North First St,,,42.371572,-71.076584,,,,level_ground,2,place-lech,1,Cambridge,,,,,,,,,,,,DOT_ADMIN,2022/10/17 19:46:59+00,DOT_ADMIN,2022/10/17 19:46:59+00
-71.0767260001708,42.3717000003046,647592,door-lech-firstracks,,"Lechmere - Busway, North First St","Lechmere - Busway, North First St",,,42.3717,-71.076726,,,,level_ground,2,place-lech,1,Cambridge,,,,,,,,,,,,DOT_ADMIN,2022/10/17 19:46:59+00,DOT_ADMIN,2022/10/17 19:46:59+00
-71.0756810002877,42.3708439995924,647593,door-lech-obrien,,Lechmere - O'Brien Hwy,Lechmere - O'Brien Hwy,,,42.370844,-71.075681,,,,level_ground,2,place-lech,1,Cambridge,,,,,,,,,,,,DOT_ADMIN,2022/10/17 19:46:59+00,DOT_ADMIN,2022/10/17 19:46:59+00
-71.0998829996846,42.336080000056,647595,70247,70247,Longwood Medical Area,Longwood Medical Area - Green Line - (E) Heath Street,,Heath Street,42.33608,-71.099883,RapidTransit,,https://www.mbta.com/stops/place-lngmd,level_median,0,place-lngmd,1,Boston,,,0,,,,,,,,,DOT_ADMIN,2022/10/17 19:46:59+00,DOT_ADMIN,2022/10/17 19:46:59+00
-71.0993280001161,42.3362170003614,647596,70248,70248,Longwood Medical Area,Longwood Medical Area - Green Line - Park Street & North,,Park Street & North,42.336217,-71.099328,RapidTransit,,https://www.mbta.com/stops/place-lngmd,level_median,0,place-lngmd,1,Boston,,,0,,,,,,,,,DOT_ADMIN,2022/10/17 19:46:59+00,DOT_ADMIN,2022/10/17 19:46:59+00
-71.1097770002422,42.3418080001006,647598,70182,70182,Longwood,Longwood - Green Line - Park Street & North,,Park Street & North,42.341808,-71.109777,RapidTransit,,https://www.mbta.com/stops/place-longw,level_ground,0,place-longw,1,Brookline,,,0,,,,,,,,,DOT_ADMIN,2022/10/17 19:46:59+00,DOT_ADMIN,2022/10/17 19:46:59+00
-71.1101469996422,42.3415710003334,647599,70183,70183,Longwood,Longwood - Green Line - (D) Riverside,,Riverside,42.341571,-71.110147,RapidTransit,,https://www.mbta.com/stops/place-longw,level_ground,0,place-longw,1,Brookline,,,0,,,,,,,,,DOT_ADMIN,2022/10/17 19:46:59+00,DOT_ADMIN,2022/10/17 19:46:59+00
-71.109877000322,42.3418900003889,647600,door-longw-colchester,,"Longwood - Chapel St, Colchester St","Longwood - Chapel St, Colchester St",,,42.34189,-71.109877,,,,level_in_street,2,place-longw,2,Brookline,,,,,,,,,,,,DOT_ADMIN,2022/10/17 19:46:59+00,DOT_ADMIN,2022/10/17 19:46:59+00
-71.1102979998339,42.3415419997834,647601,door-longw-longwood,,"Longwood - Chapel St, Longwood Ave","Longwood - Chapel St, Longwood Ave",,,42.341542,-71.110298,,,,level_in_street,2,place-longw,1,Brookline,,,,,,,,,,,,DOT_ADMIN,2022/10/17 19:46:59+00,DOT_ADMIN,2022/10/17 19:46:59+00
-71.1096100002791,42.3417470002229,647602,door-longw-neckramp,,Longwood - Emerald Necklace (Ramp),Longwood - Emerald Necklace (Ramp),,,42.341747,-71.10961,,,,level_ground,2,place-longw,1,Brookline,,,,,,,,,,,,DOT_ADMIN,2022/10/17 19:46:59+00,DOT_ADMIN,2022/10/17 19:46:59+00
-71.1100090003468,42.3413939995679,647603,door-longw-neckstairs,,Longwood - Emerald Necklace (Stairs),Longwood - Emerald Necklace (Stairs),,,42.341394,-71.110009,,,,level_ground,2,place-longw,2,Brookline,,,,,,,,,,,,DOT_ADMIN,2022/10/17 19:46:59+00,DOT_ADMIN,2022/10/17 19:46:59+00
-71.08418799966,42.3409270001566,647605,70012,70012,Massachusetts Avenue,Massachusetts Avenue - Orange Line - Forest Hills,,Forest Hills,42.340927,-71.084188,RapidTransit,,https://www.mbta.com/stops/place-masta,level_-1_platform,0,place-masta,1,Boston,,,1,,,,,,,,,DOT_ADMIN,2022/10/17 19:46:59+00,DOT_ADMIN,2022/10/17 19:46:59+00
-71.0841240005213,42.340892000269,647606,70013,70013,Massachusetts Avenue,Massachusetts Avenue - Orange Line - Oak Grove,,Oak Grove,42.340892,-71.084124,RapidTransit,,https://www.mbta.com/stops/place-masta,level_-1_platform,0,place-masta,1,Boston,,,1,,,,,,,,,DOT_ADMIN,2022/10/17 19:46:59+00,DOT_ADMIN,2022/10/17 19:46:59+00
-71.0847629994027,42.3403790001655,647607,door-masta-camden,,Massachusetts Avenue - Camden St,Massachusetts Avenue - Camden St,,,42.340379,-71.084763,,,,level_ground,2,place-masta,2,Boston,,,,,,,,,,,,DOT_ADMIN,2022/10/17 19:46:59+00,DOT_ADMIN,2022/10/17 19:46:59+00
-71.0831669999942,42.3417730004226,647608,door-masta-corridor,,Massachusetts Avenue - Massachusetts Ave (Northside),Massachusetts Avenue - Massachusetts Ave (Northside),,,42.341773,-71.083167,,,,level_in_street,2,place-masta,1,Boston,,,,,,,,,,,,DOT_ADMIN,2022/10/17 19:46:59+00,DOT_ADMIN,2022/10/17 19:46:59+00
-71.0834360001833,42.3415509998237,647609,door-masta-main,,Massachusetts Avenue - Massachusetts Ave (Southside),Massachusetts Avenue - Massachusetts Ave (Southside),,,42.341551,-71.083436,,,,level_in_street,2,place-masta,1,Boston,,,,,,,,,,,,DOT_ADMIN,2022/10/17 19:46:59+00,DOT_ADMIN,2022/10/17 19:46:59+00
-71.0834339995275,42.3413639999507,647610,door-masta-side,,Massachusetts Avenue - Southwest Corridor Park,Massachusetts Avenue - Southwest Corridor Park,,,42.341364,-71.083434,,,,level_ground,2,place-masta,1,Boston,,,,,,,,,,,,DOT_ADMIN,2022/10/17 19:46:59+00,DOT_ADMIN,2022/10/17 19:46:59+00
-71.0923890005583,42.2676250000834,647614,70275,70275,Mattapan,Mattapan - Mattapan Trolley - Exit Only,,Exit Only,42.267625,-71.092389,RapidTransit,,https://www.mbta.com/stops/place-matt,level_ground,0,place-matt,1,Boston,,,0,,,,,,,,,DOT_ADMIN,2022/10/17 19:46:59+00,DOT_ADMIN,2022/10/17 19:46:59+00
-71.0922330001917,42.2675590003154,647615,70276,70276,Mattapan,Mattapan - Mattapan Trolley - Ashmont,,Ashmont,42.267559,-71.092233,RapidTransit,,https://www.mbta.com/stops/place-matt,level_ground,0,place-matt,1,Boston,,,0,,,,,,,,,DOT_ADMIN,2022/10/17 19:46:59+00,DOT_ADMIN,2022/10/17 19:46:59+00
-71.0918710001957,42.2677440003125,647616,door-matt-neponset,,"Mattapan - Neponset Trail, Parking","Mattapan - Neponset Trail, Parking",,,42.267744,-71.091871,,,,level_ground,2,place-matt,1,Boston,,,,,,,,,,,,DOT_ADMIN,2022/10/17 19:46:59+00,DOT_ADMIN,2022/10/17 19:46:59+00
-71.0922240003666,42.267684000173,647617,door-matt-northbus,,Mattapan - Upper Busway,Mattapan - Upper Busway,,,42.267684,-71.092224,,,,level_ground,2,place-matt,1,Boston,,,,,,,,,,,,DOT_ADMIN,2022/10/17 19:46:59+00,DOT_ADMIN,2022/10/17 19:46:59+00
-71.0923760001084,42.2674310000873,647618,door-matt-southbus,,Mattapan - Lower Busway,Mattapan - Lower Busway,,,42.267431,-71.092376,,,,level_ground,2,place-matt,1,Boston,,,,,,,,,,,,DOT_ADMIN,2022/10/17 19:46:59+00,DOT_ADMIN,2022/10/17 19:46:59+00
-71.0930889998991,42.2675160003274,647619,door-matt-square,,Mattapan - Mattapan Square,Mattapan - Mattapan Square,,,42.267516,-71.093089,,,,level_ground,2,place-matt,1,Boston,,,,,,,,,,,,DOT_ADMIN,2022/10/17 19:46:59+00,DOT_ADMIN,2022/10/17 19:46:59+00
-71.1172800003242,42.4083059995659,647621,70511,70511,Medford/Tufts,Medford/Tufts - Green Line - (E) Medford/Tufts,,Medford/Tufts,42.408306,-71.11728,,,https://www.mbta.com/stops/place-mdftf,level_-1_platform,0,place-mdftf,1,Medford,,,,,,,,,,,,DOT_ADMIN,2022/10/17 19:46:59+00,DOT_ADMIN,2022/10/17 19:46:59+00
-71.1173389994088,42.4082800003588,647622,70512,70512,Medford/Tufts,Medford/Tufts - Green Line - Copley & West,,Copley & West,42.40828,-71.117339,,,https://www.mbta.com/stops/place-mdftf,level_-1_platform,0,place-mdftf,1,Medford,,,,,,,,,,,,DOT_ADMIN,2022/10/17 19:46:59+00,DOT_ADMIN,2022/10/17 19:46:59+00
-71.0952400003343,42.3378750000332,647624,70245,70245,Museum of Fine Arts,Museum of Fine Arts - Green Line - (E) Heath Street,,Heath Street,42.337875,-71.09524,RapidTransit,,https://www.mbta.com/stops/place-mfa,level_median,0,place-mfa,1,Boston,,,0,,,,,,,,,DOT_ADMIN,2022/10/17 19:46:59+00,DOT_ADMIN,2022/10/17 19:46:59+00
-71.0946820001023,42.3380170000206,647625,70246,70246,Museum of Fine Arts,Museum of Fine Arts - Green Line - Park Street & North,,Park Street & North,42.338017,-71.094682,RapidTransit,,https://www.mbta.com/stops/place-mfa,level_median,0,place-mfa,1,Boston,,,0,,,,,,,,,DOT_ADMIN,2022/10/17 19:46:59+00,DOT_ADMIN,2022/10/17 19:46:59+00
-71.1068239999116,42.3943570002009,647627,70507,70507,Magoun Square,Magoun Square - Green Line - (E) Medford/Tufts,,Medford/Tufts,42.394357,-71.106824,,,https://www.mbta.com/stops/place-mgngl,level_-1_platform,0,place-mgngl,1,Somerville,,,,,,,,,,,,DOT_ADMIN,2022/10/17 19:46:59+00,DOT_ADMIN,2022/10/17 19:46:59+00
-71.1066880005563,42.3940499996815,647628,70508,70508,Magoun Square,Magoun Square - Green Line - Copley & West,,Copley & West,42.39405,-71.106688,,,https://www.mbta.com/stops/place-mgngl,level_-1_platform,0,place-mgngl,1,Somerville,,,,,,,,,,,,DOT_ADMIN,2022/10/17 19:46:59+00,DOT_ADMIN,2022/10/17 19:46:59+00
-71.0672529997202,42.2703879998915,647630,70267,70267,Milton,Milton - Mattapan Trolley - Mattapan,,Mattapan,42.270388,-71.067253,RapidTransit,,https://www.mbta.com/stops/place-miltt,level_ground,0,place-miltt,1,Milton,,,0,,,,,,,,,DOT_ADMIN,2022/10/17 19:46:59+00,DOT_ADMIN,2022/10/17 19:46:59+00
-71.0672890003601,42.2703080001198,647631,70268,70268,Milton,Milton - Mattapan Trolley - Ashmont,,Ashmont,42.270308,-71.067289,RapidTransit,,https://www.mbta.com/stops/place-miltt,level_ground,0,place-miltt,1,Milton,,,0,,,,,,,,,DOT_ADMIN,2022/10/17 19:46:59+00,DOT_ADMIN,2022/10/17 19:46:59+00
-71.067694000324,42.2702480001947,647632,door-miltt-adams,,Milton - Adams St,Milton - Adams St,,,42.270248,-71.067694,,,,level_1_in_street,2,place-miltt,2,Milton,,,,,,,,,,,,DOT_ADMIN,2022/10/17 19:46:59+00,DOT_ADMIN,2022/10/17 19:46:59+00
-71.0670050001199,42.2704360004148,647633,door-miltt-trail,,Milton - Neponset Trail,Milton - Neponset Trail,,,42.270436,-71.067005,,,,level_ground,2,place-miltt,1,Milton,,,,,,,,,,,,DOT_ADMIN,2022/10/17 19:46:59+00,DOT_ADMIN,2022/10/17 19:46:59+00
-71.067246000272,42.2702750002995,647634,door-miltt-wharf,,"Milton - Parking, Wharf St","Milton - Parking, Wharf St",,,42.270275,-71.067246,,,,level_ground,2,place-miltt,1,Milton,,,,,,,,,,,,DOT_ADMIN,2022/10/17 19:46:59+00,DOT_ADMIN,2022/10/17 19:46:59+00
-71.1092759994445,42.333278999878,647636,70253,70253,Mission Park,Mission Park - Green Line - (E) Heath Street,,Heath Street,42.333279,-71.109276,RapidTransit,,https://www.mbta.com/stops/place-mispk,level_in_street,0,place-mispk,2,Boston,,,0,,,,,,,,,DOT_ADMIN,2022/10/17 19:46:59+00,DOT_ADMIN,2022/10/17 19:46:59+00
-71.1096799996139,42.3330920003393,647637,70254,70254,Mission Park,Mission Park - Green Line - Park Street & North,,Park Street & North,42.333092,-71.10968,RapidTransit,,https://www.mbta.com/stops/place-mispk,level_in_street,0,place-mispk,2,Boston,,,0,,,,,,,,,DOT_ADMIN,2022/10/17 19:46:59+00,DOT_ADMIN,2022/10/17 19:46:59+00
-71.0743809994598,42.4266770001407,647642,70034,70034,Malden Center,Malden Center - Orange Line - Forest Hills,,Forest Hills,42.426677,-71.074381,RapidTransit,,https://www.mbta.com/stops/place-mlmnl,level_1_orange_platform,0,place-mlmnl,1,Malden,,,1,,,,,,,,,DOT_ADMIN,2022/10/17 19:46:59+00,DOT_ADMIN,2022/10/17 19:46:59+00
-71.0743140001534,42.4266619996228,647643,70035,70035,Malden Center,Malden Center - Orange Line - Oak Grove,,Oak Grove,42.426662,-71.074314,RapidTransit,,https://www.mbta.com/stops/place-mlmnl,level_1_orange_platform,0,place-mlmnl,1,Malden,,,1,,,,,,,,,DOT_ADMIN,2022/10/17 19:46:59+00,DOT_ADMIN,2022/10/17 19:46:59+00
-71.0739830003918,42.4268140004286,647645,door-mlmnl-commercial,,"Malden Center - Commercial St, Malden Government Center","Malden Center - Commercial St, Malden Government Center",,,42.426814,-71.073983,,,,level_ground,2,place-mlmnl,2,Malden,,,,,,,,,,,,DOT_ADMIN,2022/10/17 19:46:59+00,DOT_ADMIN,2022/10/17 19:46:59+00
-71.0743550001986,42.4268799998945,647646,door-mlmnl-pleasant,,"Malden Center - Summer St, Pleasant St","Malden Center - Summer St, Pleasant St",,,42.42688,-71.074355,,,,level_0.5_ground,2,place-mlmnl,1,Malden,,,,,,,,,,,,DOT_ADMIN,2022/10/17 19:46:59+00,DOT_ADMIN,2022/10/17 19:46:59+00
-71.0739870000397,42.4268900002885,647647,door-mlmnl-ramp,,"Malden Center - Commercial St, Malden Government Center (ramp)","Malden Center - Commercial St, Malden Government Center (ramp)",,,42.42689,-71.073987,,,,level_ground,2,place-mlmnl,1,Malden,,,,,,,,,,,,DOT_ADMIN,2022/10/17 19:46:59+00,DOT_ADMIN,2022/10/17 19:46:59+00
-71.0395300005714,42.3691190004329,647651,70045,70045,Maverick,Maverick - Blue Line - Bowdoin,,Bowdoin,42.369119,-71.03953,RapidTransit,,https://www.mbta.com/stops/place-mvbcl,level_-1_platform,0,place-mvbcl,1,Boston,,,1,,,,,,,,,DOT_ADMIN,2022/10/17 19:46:59+00,DOT_ADMIN,2022/10/17 19:46:59+00
-71.0395300005714,42.3691190004329,647652,70046,70046,Maverick,Maverick - Blue Line - Wonderland,,Wonderland,42.369119,-71.03953,RapidTransit,,https://www.mbta.com/stops/place-mvbcl,level_-1_platform,0,place-mvbcl,1,Boston,,,1,,,,,,,,,DOT_ADMIN,2022/10/17 19:46:59+00,DOT_ADMIN,2022/10/17 19:46:59+00
-71.0405389998847,42.3682750001166,647653,door-mvbcl-lewis,,Maverick - Lewis Mall,Maverick - Lewis Mall,,,42.368275,-71.040539,,,,level_ground,2,place-mvbcl,1,Boston,,,,,,,,,,,,DOT_ADMIN,2022/10/17 19:46:59+00,DOT_ADMIN,2022/10/17 19:46:59+00
-71.0394999995645,42.3691930002792,647654,door-mvbcl-square,,"Maverick - Sumner St, Maverick Square","Maverick - Sumner St, Maverick Square",,,42.369193,-71.0395,,,,level_in_street,2,place-mvbcl,1,Boston,,,,,,,,,,,,DOT_ADMIN,2022/10/17 19:46:59+00,DOT_ADMIN,2022/10/17 19:46:59+00
-71.2050820003955,42.3227380000814,647656,70168,70168,Newton Highlands,Newton Highlands - Green Line - Park Street & North,,Park Street & North,42.322738,-71.205082,RapidTransit,,https://www.mbta.com/stops/place-newtn,level_ground,0,place-newtn,1,Newton,,,0,,,,,,,,,DOT_ADMIN,2022/10/17 19:46:59+00,DOT_ADMIN,2022/10/17 19:46:59+00
-71.2054209997923,42.3225300000503,647657,70169,70169,Newton Highlands,Newton Highlands - Green Line - (D) Riverside,,Riverside,42.32253,-71.205421,RapidTransit,,https://www.mbta.com/stops/place-newtn,level_ground,0,place-newtn,1,Newton,,,0,,,,,,,,,DOT_ADMIN,2022/10/17 19:46:59+00,DOT_ADMIN,2022/10/17 19:46:59+00
-71.2043359996292,42.3234979998918,647660,door-newtn-hyde,,Newton Highlands - Hyde St,Newton Highlands - Hyde St,,,42.323498,-71.204336,,,,level_1_in_street,2,place-newtn,2,Newton,,,,,,,,,,,,DOT_ADMIN,2022/10/17 19:46:59+00,DOT_ADMIN,2022/10/17 19:46:59+00
-71.2056169995143,42.3226760000539,647661,door-newtn-lake,,"Newton Highlands - Lake Ave, Walnut St","Newton Highlands - Lake Ave, Walnut St",,,42.322676,-71.205617,,,,level_1_in_street,2,place-newtn,1,Newton,,,,,,,,,,,,DOT_ADMIN,2022/10/17 19:46:59+00,DOT_ADMIN,2022/10/17 19:46:59+00
-71.2062449999668,42.322039999855,647662,door-newtn-walnut,,"Newton Highlands - Walnut St, Station Ave, Buses","Newton Highlands - Walnut St, Station Ave, Buses",,,42.32204,-71.206245,,,,level_1_in_street,2,place-newtn,1,Newton,,,,,,,,,,,,DOT_ADMIN,2022/10/17 19:46:59+00,DOT_ADMIN,2022/10/17 19:46:59+00
-71.192024000348,42.3295519998017,647664,70170,70170,Newton Centre,Newton Centre - Green Line - Park Street & North,,Park Street & North,42.329552,-71.192024,RapidTransit,,https://www.mbta.com/stops/place-newto,level_ground,0,place-newto,1,Newton,,,0,,,,,,,,,DOT_ADMIN,2022/10/17 19:46:59+00,DOT_ADMIN,2022/10/17 19:46:59+00
-71.1926220003281,42.3294000000396,647665,70171,70171,Newton Centre,Newton Centre - Green Line - (D) Riverside,,Riverside,42.3294,-71.192622,RapidTransit,,https://www.mbta.com/stops/place-newto,level_ground,0,place-newto,1,Newton,,,0,,,,,,,,,DOT_ADMIN,2022/10/17 19:46:59+00,DOT_ADMIN,2022/10/17 19:46:59+00
-71.1922960000292,42.3293489997094,647666,door-newto-braeland,,"Newton Centre - Braeland Ave, Langley Rd","Newton Centre - Braeland Ave, Langley Rd",,,42.329349,-71.192296,,,,level_1_in_street,2,place-newto,2,Newton,,,,,,,,,,,,DOT_ADMIN,2022/10/17 19:46:59+00,DOT_ADMIN,2022/10/17 19:46:59+00
-71.1933550005004,42.3291350000166,647667,door-newto-herrick,,"Newton Centre - Union St, Herrick Rd","Newton Centre - Union St, Herrick Rd",,,42.329135,-71.193355,,,,level_1_in_street,2,place-newto,2,Newton,,,,,,,,,,,,DOT_ADMIN,2022/10/17 19:46:59+00,DOT_ADMIN,2022/10/17 19:46:59+00
-71.1914700000201,42.3299739999689,647668,door-newto-langley,,Newton Centre - Langley Rd,Newton Centre - Langley Rd,,,42.329974,-71.19147,,,,level_1_in_street,2,place-newto,1,Newton,,,,,,,,,,,,DOT_ADMIN,2022/10/17 19:46:59+00,DOT_ADMIN,2022/10/17 19:46:59+00
-71.1923409997312,42.3296200003981,647669,door-newto-uniones,,Newton Centre - Union St (East stairs),Newton Centre - Union St (East stairs),,,42.32962,-71.192341,,,,level_1_in_street,2,place-newto,2,Newton,,,,,,,,,,,,DOT_ADMIN,2022/10/17 19:46:59+00,DOT_ADMIN,2022/10/17 19:46:59+00
-71.1932690002024,42.3293570000319,647670,door-newto-unionr,,Newton Centre - Union St (Ramp),Newton Centre - Union St (Ramp),,,42.329357,-71.193269,,,,level_1_in_street,2,place-newto,1,Newton,,,,,,,,,,,,DOT_ADMIN,2022/10/17 19:46:59+00,DOT_ADMIN,2022/10/17 19:46:59+00
-71.1926430001014,42.3294939996807,647671,door-newto-unionws,,Newton Centre - Union St (West stairs),Newton Centre - Union St (West stairs),,,42.329494,-71.192643,,,,level_1_in_street,2,place-newto,2,Newton,,,,,,,,,,,,DOT_ADMIN,2022/10/17 19:46:59+00,DOT_ADMIN,2022/10/17 19:46:59+00
-71.0612899995415,42.3655770003071,647673,70026,70026,North Station,North Station - Orange Line - Forest Hills,,Forest Hills,42.365577,-71.06129,RapidTransit,,https://www.mbta.com/stops/place-north,level_-2_low_platform,0,place-north,1,Boston,,,1,,,,,,,,,DOT_ADMIN,2022/10/17 19:46:59+00,DOT_ADMIN,2022/10/17 19:46:59+00
-71.0612899995415,42.3655770003071,647674,70027,70027,North Station,North Station - Orange Line - Oak Grove,,Oak Grove,42.365577,-71.06129,RapidTransit,,https://www.mbta.com/stops/place-north,level_-2_low_platform,0,place-north,1,Boston,,,1,,,,,,,,,DOT_ADMIN,2022/10/17 19:46:59+00,DOT_ADMIN,2022/10/17 19:46:59+00
-71.0612899995415,42.3655770003071,647675,70205,70205,North Station,North Station - Green Line - Lechmere & North,,Lechmere & North,42.365577,-71.06129,RapidTransit,,https://www.mbta.com/stops/place-north,level_-1_lechmere_platform,0,place-north,1,Boston,,,0,,,,,,,,,DOT_ADMIN,2022/10/17 19:46:59+00,DOT_ADMIN,2022/10/17 19:46:59+00
-71.0612899995415,42.3655770003071,647676,70206,70206,North Station,North Station - Green Line - Copley & West,,Copley & West,42.365577,-71.06129,RapidTransit,,https://www.mbta.com/stops/place-north,level_-2_low_platform,0,place-north,1,Boston,,,0,,,,,,,,,DOT_ADMIN,2022/10/17 19:46:59+00,DOT_ADMIN,2022/10/17 19:46:59+00
-71.0604719998682,42.3656389997821,647688,door-north-causewaye,,North Station - Causeway St (Elevator),North Station - Causeway St (Elevator),,,42.365639,-71.060472,,,,level_in_street,2,place-north,1,Boston,,,,,,,,,,,,DOT_ADMIN,2022/10/17 19:46:59+00,DOT_ADMIN,2022/10/17 19:46:59+00
-71.0604899994539,42.3654959999971,647689,door-north-causeways,,"North Station - Causeway St, Haverhill St","North Station - Causeway St, Haverhill St",,,42.365496,-71.06049,,,,level_in_street,2,place-north,2,Boston,,,,,,,,,,,,DOT_ADMIN,2022/10/17 19:46:59+00,DOT_ADMIN,2022/10/17 19:46:59+00
-71.0617590005839,42.3659750000776,647690,door-north-crcanal,,"North Station - Causeway St, Canal St","North Station - Causeway St, Canal St",,,42.365975,-71.061759,,,,level_in_street,2,place-north,1,Boston,,,,,,,,,,,,DOT_ADMIN,2022/10/17 19:46:59+00,DOT_ADMIN,2022/10/17 19:46:59+00
-71.061324000131,42.366403999631,647691,door-north-crcauseway,,North Station - Causeway St (East),North Station - Causeway St (East),,,42.366404,-71.061324,,,,level_in_street,2,place-north,1,Boston,,,,,,,,,,,,DOT_ADMIN,2022/10/17 19:46:59+00,DOT_ADMIN,2022/10/17 19:46:59+00
-71.0626839995366,42.3657380003933,647692,door-north-crnashua,,"North Station - Causeway St (West), Nashua St","North Station - Causeway St (West), Nashua St",,,42.365738,-71.062684,,,,level_in_street,2,place-north,1,Boston,,,,,,,,,,,,DOT_ADMIN,2022/10/17 19:46:59+00,DOT_ADMIN,2022/10/17 19:46:59+00
-71.060892,42.3658330002803,647693,door-north-tdgarden,,North Station - TD Garden passageway (Elevator),North Station - TD Garden passageway (Elevator),,,42.365833,-71.060892,,,,level_in_street,2,place-north,1,Boston,,,,,,,,,,,,DOT_ADMIN,2022/10/17 19:46:59+00,DOT_ADMIN,2022/10/17 19:46:59+00
-71.0595409998829,42.3646520000315,647694,door-north-valenti,,North Station - Valenti Way,North Station - Valenti Way,,,42.364652,-71.059541,,,,level_in_street,2,place-north,1,Boston,,,,,,,,,,,,DOT_ADMIN,2022/10/17 19:46:59+00,DOT_ADMIN,2022/10/17 19:46:59+00
-71.030193999977,42.275770000027,647697,70097,70097,North Quincy,North Quincy - Red Line - Braintree,2,Braintree,42.27577,-71.030194,RapidTransit,,https://www.mbta.com/stops/place-nqncy,level_0_platform,0,place-nqncy,1,Quincy,,,1,,,,,,,,,DOT_ADMIN,2022/10/17 19:46:59+00,DOT_ADMIN,2022/10/17 19:46:59+00
-71.0301440001988,42.2758020004131,647698,70098,70098,North Quincy,North Quincy - Red Line - Alewife,1,Alewife,42.275802,-71.030144,RapidTransit,,https://www.mbta.com/stops/place-nqncy,level_0_platform,0,place-nqncy,1,Quincy,,,1,,,,,,,,,DOT_ADMIN,2022/10/17 19:46:59+00,DOT_ADMIN,2022/10/17 19:46:59+00
-71.0309220003931,42.2766309996554,647699,door-nqncy-hancock,,North Quincy - Hancock St,North Quincy - Hancock St,,,42.276631,-71.030922,,,,level_ground,2,place-nqncy,1,Quincy,,,,,,,,,,,,DOT_ADMIN,2022/10/17 19:46:59+00,DOT_ADMIN,2022/10/17 19:46:59+00
-71.0311840004114,42.2764830000102,647700,door-nqncy-newport,,North Quincy - Newport Ave Extension,North Quincy - Newport Ave Extension,,,42.276483,-71.031184,,,,level_ground,2,place-nqncy,1,Quincy,,,,,,,,,,,,DOT_ADMIN,2022/10/17 19:46:59+00,DOT_ADMIN,2022/10/17 19:46:59+00
-71.0292430004384,42.2752100001103,647701,door-nqncy-squantum,,North Quincy - West Squantum St,North Quincy - West Squantum St,,,42.27521,-71.029243,,,,level_1_ground,2,place-nqncy,1,Quincy,,,,,,,,,,,,DOT_ADMIN,2022/10/17 19:46:59+00,DOT_ADMIN,2022/10/17 19:46:59+00
-71.0902099998963,42.3398970003506,647706,70243,70243,Northeastern University,Northeastern University - Green Line - (E) Heath Street,,Heath Street,42.339897,-71.09021,RapidTransit,,https://www.mbta.com/stops/place-nuniv,level_median,0,place-nuniv,1,Boston,,,0,,,,,,,,,DOT_ADMIN,2022/10/17 19:46:59+00,DOT_ADMIN,2022/10/17 19:46:59+00
-71.0892000002903,42.3402220001983,647707,70244,70244,Northeastern University,Northeastern University - Green Line - Park Street & North,,Park Street & North,42.340222,-71.0892,RapidTransit,,https://www.mbta.com/stops/place-nuniv,level_median,0,place-nuniv,1,Boston,,,0,,,,,,,,,DOT_ADMIN,2022/10/17 19:46:59+00,DOT_ADMIN,2022/10/17 19:46:59+00
-71.0708750005709,42.4377349998889,647709,70036,70036,Oak Grove,Oak Grove - Orange Line,,Orange Line,42.437735,-71.070875,RapidTransit,,https://www.mbta.com/stops/place-ogmnl,level_0_platform,0,place-ogmnl,1,Malden,,,1,,,,,,,,,DOT_ADMIN,2022/10/17 19:46:59+00,DOT_ADMIN,2022/10/17 19:46:59+00
-71.0708369997876,42.4377349996128,647711,Oak Grove-01,,Oak Grove,Oak Grove - Orange Line - Track 1,1,Track 1,42.437735,-71.070837,RapidTransit,,https://www.mbta.com/stops/place-ogmnl,level_0_platform,0,place-ogmnl,1,Malden,,,1,,,,,,,,,DOT_ADMIN,2022/10/17 19:46:59+00,DOT_ADMIN,2022/10/17 19:46:59+00
-71.0709049999965,42.4377270002172,647712,Oak Grove-02,,Oak Grove,Oak Grove - Orange Line - Track 2,2,Track 2,42.437727,-71.070905,RapidTransit,,https://www.mbta.com/stops/place-ogmnl,level_0_platform,0,place-ogmnl,1,Malden,,,1,,,,,,,,,DOT_ADMIN,2022/10/17 19:46:59+00,DOT_ADMIN,2022/10/17 19:46:59+00
-71.0703429998227,42.4368590000211,647714,door-ogmnl-banks,,Oak Grove - Banks Place,Oak Grove - Banks Place,,,42.436859,-71.070343,,,,level_ground,2,place-ogmnl,1,Malden,,,,,,,,,,,,DOT_ADMIN,2022/10/17 19:46:59+00,DOT_ADMIN,2022/10/17 19:46:59+00
-71.071151999635,42.436676000336,647715,door-ogmnl-wash,,Oak Grove - Washington St,Oak Grove - Washington St,,,42.436676,-71.071152,,,,level_in_street,2,place-ogmnl,2,Malden,,,,,,,,,,,,DOT_ADMIN,2022/10/17 19:46:59+00,DOT_ADMIN,2022/10/17 19:46:59+00
-71.0710560004748,42.4369469996236,647716,door-ogmnl-washel,,Oak Grove - Washington St (Elevator),Oak Grove - Washington St (Elevator),,,42.436947,-71.071056,,,,level_ground,2,place-ogmnl,1,Malden,,,,,,,,,,,,DOT_ADMIN,2022/10/17 19:46:59+00,DOT_ADMIN,2022/10/17 19:46:59+00
-71.0048090003398,42.3869089996544,647721,70051,70051,Orient Heights,Orient Heights - Blue Line - Bowdoin,,Bowdoin,42.386909,-71.004809,RapidTransit,,https://www.mbta.com/stops/place-orhte,level_0_platform,0,place-orhte,1,Boston,,,1,,,,,,,,,DOT_ADMIN,2022/10/17 19:46:59+00,DOT_ADMIN,2022/10/17 19:46:59+00
-71.0047670005644,42.386842000405,647722,70052,70052,Orient Heights,Orient Heights - Blue Line - Wonderland,,Wonderland,42.386842,-71.004767,RapidTransit,,https://www.mbta.com/stops/place-orhte,level_0_platform,0,place-orhte,1,Boston,,,1,,,,,,,,,DOT_ADMIN,2022/10/17 19:46:59+00,DOT_ADMIN,2022/10/17 19:46:59+00
-71.004663999666,42.3870800001216,647723,door-orhte-benning,,Orient Heights - Bennington St,Orient Heights - Bennington St,,,42.38708,-71.004664,,,,level_ground,2,place-orhte,1,Boston,,,,,,,,,,,,DOT_ADMIN,2022/10/17 19:46:59+00,DOT_ADMIN,2022/10/17 19:46:59+00
-71.0043640004601,42.3868619998632,647724,door-orhte-saratoga,,"Orient Heights - Saratoga St, Barnes Ave","Orient Heights - Saratoga St, Barnes Ave",,,42.386862,-71.004364,,,,level_ground,2,place-orhte,1,Boston,,,,,,,,,,,,DOT_ADMIN,2022/10/17 19:46:59+00,DOT_ADMIN,2022/10/17 19:46:59+00
-71.0624240000845,42.3563949996414,647726,70075,70075,Park Street,Park Street - Red Line - Ashmont/Braintree,,Ashmont/Braintree,42.356395,-71.062424,RapidTransit,,https://www.mbta.com/stops/place-pktrm,level_-2_red_platform,0,place-pktrm,1,Boston,,,1,,,,,,,,,DOT_ADMIN,2022/10/17 19:46:59+00,DOT_ADMIN,2022/10/17 19:46:59+00
-71.0624240000845,42.3563949996414,647727,70076,70076,Park Street,Park Street - Red Line - Alewife,,Alewife,42.356395,-71.062424,RapidTransit,,https://www.mbta.com/stops/place-pktrm,level_-2_red_platform,0,place-pktrm,1,Boston,,,1,,,,,,,,,DOT_ADMIN,2022/10/17 19:46:59+00,DOT_ADMIN,2022/10/17 19:46:59+00
-71.0624240000845,42.3563949996414,647728,70196,70196,Park Street,Park Street - Green Line - (B) Boston College,B,Boston College,42.356395,-71.062424,RapidTransit,,https://www.mbta.com/stops/place-pktrm,level_-1_green_platform,0,place-pktrm,1,Boston,,,0,,,,,,,,,DOT_ADMIN,2022/10/17 19:46:59+00,DOT_ADMIN,2022/10/17 19:46:59+00
-71.0624240000845,42.3563949996414,647729,70197,70197,Park Street,Park Street - Green Line - (C) Cleveland Circle,C,Cleveland Circle,42.356395,-71.062424,RapidTransit,,https://www.mbta.com/stops/place-pktrm,level_-1_green_platform,0,place-pktrm,1,Boston,,,0,,,,,,,,,DOT_ADMIN,2022/10/17 19:46:59+00,DOT_ADMIN,2022/10/17 19:46:59+00
-71.0624240000845,42.3563949996414,647730,70198,70198,Park Street,Park Street - Green Line - (D) Riverside,D,Riverside,42.356395,-71.062424,RapidTransit,,https://www.mbta.com/stops/place-pktrm,level_-1_green_platform,0,place-pktrm,1,Boston,,,0,,,,,,,,,DOT_ADMIN,2022/10/17 19:46:59+00,DOT_ADMIN,2022/10/17 19:46:59+00
-71.0624240000845,42.3563949996414,647731,70199,70199,Park Street,Park Street - Green Line - (E) Heath Street,E,Heath Street,42.356395,-71.062424,RapidTransit,,https://www.mbta.com/stops/place-pktrm,level_-1_green_platform,0,place-pktrm,1,Boston,,,0,,,,,,,,,DOT_ADMIN,2022/10/17 19:46:59+00,DOT_ADMIN,2022/10/17 19:46:59+00
-71.0624240000845,42.3563949996414,647732,70200,70200,Park Street,Park Street - Green Line - Government Center & North,,Government Center & North,42.356395,-71.062424,RapidTransit,,https://www.mbta.com/stops/place-pktrm,level_-1_green_platform,0,place-pktrm,1,Boston,,,0,,,,,,,,,DOT_ADMIN,2022/10/17 19:46:59+00,DOT_ADMIN,2022/10/17 19:46:59+00
-71.0624240000845,42.3563949996414,647733,71199,,Park Street,Park Street - Green Line - Drop-off Only,,Drop-off Only,42.356395,-71.062424,RapidTransit,,https://www.mbta.com/stops/place-pktrm,level_-1_green_platform,0,place-pktrm,1,Boston,,,0,,,,,,,,,DOT_ADMIN,2022/10/17 19:46:59+00,DOT_ADMIN,2022/10/17 19:46:59+00
-71.0622390001298,42.3561720002216,647734,door-pktrm-elevatoreb,,Park Street - Tremont St to Lobby (Elevator 804),Park Street - Tremont St to Lobby (Elevator 804),,,42.356172,-71.062239,,,,level_in_street,2,place-pktrm,1,Boston,,,,,,,,,,,,DOT_ADMIN,2022/10/17 19:46:59+00,DOT_ADMIN,2022/10/17 19:46:59+00
-71.062674999863,42.3563310002099,647735,door-pktrm-elevatorwb,,"Park Street - Elevator, Tremont St","Park Street - Elevator, Tremont St",,,42.356331,-71.062675,,,,level_in_street,2,place-pktrm,1,Boston,,,,,,,,,,,,DOT_ADMIN,2022/10/17 19:46:59+00,DOT_ADMIN,2022/10/17 19:46:59+00
-71.0619040005973,42.3565039996773,647736,door-pktrm-exitalewife,,Park Street - Escalator to Tremont St (North),Park Street - Escalator to Tremont St (North),,,42.356504,-71.061904,,,,level_in_street,2,place-pktrm,2,Boston,,,,,,,,,,,,DOT_ADMIN,2022/10/17 19:46:59+00,DOT_ADMIN,2022/10/17 19:46:59+00
-71.0624270001557,42.3559760003029,647737,door-pktrm-exitashbrain,,Park Street - Escalator to Tremont St (South),Park Street - Escalator to Tremont St (South),,,42.355976,-71.062427,,,,level_in_street,2,place-pktrm,2,Boston,,,,,,,,,,,,DOT_ADMIN,2022/10/17 19:46:59+00,DOT_ADMIN,2022/10/17 19:46:59+00
-71.0623210002205,42.356370000034,647738,door-pktrm-tremonte,,"Park Street - Tremont St, Boston Common","Park Street - Tremont St, Boston Common",,,42.35637,-71.062321,,,,level_in_street,2,place-pktrm,2,Boston,,,,,,,,,,,,DOT_ADMIN,2022/10/17 19:46:59+00,DOT_ADMIN,2022/10/17 19:46:59+00
-71.0625309998948,42.3564900002917,647739,door-pktrm-tremontw,,"Park Street - Boston Common, Tremont St","Park Street - Boston Common, Tremont St",,,42.35649,-71.062531,,,,level_in_street,2,place-pktrm,2,Boston,,,,,,,,,,,,DOT_ADMIN,2022/10/17 19:46:59+00,DOT_ADMIN,2022/10/17 19:46:59+00
-71.0623339998778,42.3560690002882,647740,door-pktrm-tremstair,,Park Street - Tremont St,Park Street - Tremont St,,,42.356069,-71.062334,,,,level_in_street,2,place-pktrm,2,Boston,,,,,,,,,,,,DOT_ADMIN,2022/10/17 19:46:59+00,DOT_ADMIN,2022/10/17 19:46:59+00
-71.0634019996807,42.3554560003524,647741,door-pktrm-west,,Park Street - Boston Common,Park Street - Boston Common,,,42.355456,-71.063402,,,,level_in_street,2,place-pktrm,2,Boston,,,,,,,,,,,,DOT_ADMIN,2022/10/17 19:46:59+00,DOT_ADMIN,2022/10/17 19:46:59+00
-71.0620080005802,42.3563970000984,647742,door-pktrm-winter,,"Park Street - Tremont St, Winter St","Park Street - Tremont St, Winter St",,,42.356397,-71.062008,,,,level_in_street,2,place-pktrm,2,Boston,,,,,,,,,,,,DOT_ADMIN,2022/10/17 19:46:59+00,DOT_ADMIN,2022/10/17 19:46:59+00
-71.1191490004468,42.388400000415,647744,70065,70065,Porter,Porter - Red Line - Ashmont/Braintree,,Ashmont/Braintree,42.3884,-71.119149,RapidTransit,,https://www.mbta.com/stops/place-portr,level_-3_southbound_platform,0,place-portr,1,Cambridge,,,1,,,,,,,,,DOT_ADMIN,2022/10/17 19:46:59+00,DOT_ADMIN,2022/10/17 19:46:59+00
-71.1191490004468,42.388400000415,647745,70066,70066,Porter,Porter - Red Line - Alewife,,Alewife,42.3884,-71.119149,RapidTransit,,https://www.mbta.com/stops/place-portr,level_-4_alewife_platform,0,place-portr,1,Cambridge,,,1,,,,,,,,,DOT_ADMIN,2022/10/17 19:46:59+00,DOT_ADMIN,2022/10/17 19:46:59+00
-71.11975199959,42.3886039999122,647749,door-portr-cracross,,"Porter - Massachusetts Ave (West), Buses","Porter - Massachusetts Ave (West), Buses",,,42.388604,-71.119752,,,,level_in_street,2,place-portr,2,Cambridge,,,,,,,,,,,,DOT_ADMIN,2022/10/17 19:46:59+00,DOT_ADMIN,2022/10/17 19:46:59+00
-71.1190990005159,42.3882540000914,647750,door-portr-crtransfer,,"Porter - Massachusetts Ave (East), Buses","Porter - Massachusetts Ave (East), Buses",,,42.388254,-71.119099,,,,level_in_street,2,place-portr,2,Cambridge,,,,,,,,,,,,DOT_ADMIN,2022/10/17 19:46:59+00,DOT_ADMIN,2022/10/17 19:46:59+00
-71.1188660003768,42.3882880001058,647751,door-portr-elevator982,,"Porter - Somerville Ave, Massachusetts Ave (Elevator)","Porter - Somerville Ave, Massachusetts Ave (Elevator)",,,42.388288,-71.118866,,,,level_in_street,2,place-portr,1,Cambridge,,,,,,,,,,,,DOT_ADMIN,2022/10/17 19:46:59+00,DOT_ADMIN,2022/10/17 19:46:59+00
-71.1189920005373,42.3883889995648,647752,door-portr-elevator985,,Porter - Somerville Ave (Elevator),Porter - Somerville Ave (Elevator),,,42.388389,-71.118992,,,,level_in_street,2,place-portr,1,Cambridge,,,,,,,,,,,,DOT_ADMIN,2022/10/17 19:46:59+00,DOT_ADMIN,2022/10/17 19:46:59+00
-71.11921200022,42.388474999816,647753,door-portr-escal,,"Porter - Somerville Ave, Massachusetts Ave","Porter - Somerville Ave, Massachusetts Ave",,,42.388475,-71.119212,,,,level_in_street,2,place-portr,2,Cambridge,,,,,,,,,,,,DOT_ADMIN,2022/10/17 19:46:59+00,DOT_ADMIN,2022/10/17 19:46:59+00
-71.0816960000406,42.3455700002009,647755,70239,70239,Prudential,Prudential - Green Line - (E) Heath Street,,Heath Street,42.34557,-71.081696,RapidTransit,,https://www.mbta.com/stops/place-prmnl,level_-2_platform,0,place-prmnl,1,Boston,,,0,,,,,,,,,DOT_ADMIN,2022/10/17 19:46:59+00,DOT_ADMIN,2022/10/17 19:46:59+00
-71.0816960000406,42.3455700002009,647756,70240,70240,Prudential,Prudential - Green Line - Park Street & North,,Park Street & North,42.34557,-71.081696,RapidTransit,,https://www.mbta.com/stops/place-prmnl,level_-2_platform,0,place-prmnl,1,Boston,,,0,,,,,,,,,DOT_ADMIN,2022/10/17 19:46:59+00,DOT_ADMIN,2022/10/17 19:46:59+00
-71.0816089995194,42.3457909997701,647757,door-prmnl-huntington,,Prudential - Huntington Ave,Prudential - Huntington Ave,,,42.345791,-71.081609,,,,level_in_street,2,place-prmnl,2,Boston,,,,,,,,,,,,DOT_ADMIN,2022/10/17 19:46:59+00,DOT_ADMIN,2022/10/17 19:46:59+00
-71.0812230002916,42.3456320002428,647758,door-prmnl-prudential,,Prudential - Prudential Center,Prudential - Prudential Center,,,42.345632,-71.081223,,,,level_0_building,2,place-prmnl,1,Boston,,,,,,,,,,,,DOT_ADMIN,2022/10/17 19:46:59+00,DOT_ADMIN,2022/10/17 19:46:59+00
-71.0071530001561,42.2333910003985,647760,70103,70103,Quincy Adams,Quincy Adams - Red Line - Braintree,,Braintree,42.233391,-71.007153,RapidTransit,,https://www.mbta.com/stops/place-qamnl,level_1_platform,0,place-qamnl,1,Quincy,,,1,,,,,,,,,DOT_ADMIN,2022/10/17 19:46:59+00,DOT_ADMIN,2022/10/17 19:46:59+00
-71.0071530001561,42.2333910003985,647761,70104,70104,Quincy Adams,Quincy Adams - Red Line - Alewife,,Alewife,42.233391,-71.007153,RapidTransit,,https://www.mbta.com/stops/place-qamnl,level_1_platform,0,place-qamnl,1,Quincy,,,1,,,,,,,,,DOT_ADMIN,2022/10/17 19:46:59+00,DOT_ADMIN,2022/10/17 19:46:59+00
-71.0073629994117,42.2333170000916,647762,door-qamnl-burgin,,Quincy Adams - Burgin Parkway,Quincy Adams - Burgin Parkway,,,42.233317,-71.007363,,,,level_ground,2,place-qamnl,1,Quincy,,,,,,,,,,,,DOT_ADMIN,2022/10/17 19:46:59+00,DOT_ADMIN,2022/10/17 19:46:59+00
-71.0061369996947,42.2334360002747,647763,door-qamnl-indep,,Quincy Adams - Independence Avenue,Quincy Adams - Independence Avenue,,,42.233436,-71.006137,,,,level_independence_ave,2,place-qamnl,1,Quincy,,,,,,,,,,,,DOT_ADMIN,2022/10/17 19:46:59+00,DOT_ADMIN,2022/10/17 19:46:59+00
-71.0074250004164,42.2327050003685,647764,door-qamnl-pickup,,Quincy Adams - Pick-up/Drop-off,Quincy Adams - Pick-up/Drop-off,,,42.232705,-71.007425,,,,level_ground,2,place-qamnl,1,Quincy,,,,,,,,,,,,DOT_ADMIN,2022/10/17 19:46:59+00,DOT_ADMIN,2022/10/17 19:46:59+00
-71.0054089995668,42.2518089999723,647771,70101,70101,Quincy Center,Quincy Center - Red Line - Braintree,2,Braintree,42.251809,-71.005409,RapidTransit,,https://www.mbta.com/stops/place-qnctr,level_-1_red_platform,0,place-qnctr,1,Quincy,,,1,,,,,,,,,DOT_ADMIN,2022/10/17 19:46:59+00,DOT_ADMIN,2022/10/17 19:46:59+00
-71.0054089995668,42.2518089999723,647772,70102,70102,Quincy Center,Quincy Center - Red Line - Alewife,1,Alewife,42.251809,-71.005409,RapidTransit,,https://www.mbta.com/stops/place-qnctr,level_-1_red_platform,0,place-qnctr,1,Quincy,,,1,,,,,,,,,DOT_ADMIN,2022/10/17 19:46:59+00,DOT_ADMIN,2022/10/17 19:46:59+00
-71.0055080002047,42.2514029995803,647774,door-qnctr-burgin,,Quincy Center - Burgin Parkway (Stairs),Quincy Center - Burgin Parkway (Stairs),,,42.251403,-71.005508,,,,level_1_in_street,2,place-qnctr,2,Quincy,,,,,,,,,,,,DOT_ADMIN,2022/10/17 19:46:59+00,DOT_ADMIN,2022/10/17 19:46:59+00
-71.0051390000194,42.2508700003198,647775,door-qnctr-burginramp,,Quincy Center - Burgin Parkway (Ramp),Quincy Center - Burgin Parkway (Ramp),,,42.25087,-71.005139,,,,level_1_in_street,2,place-qnctr,1,Quincy,,,,,,,,,,,,DOT_ADMIN,2022/10/17 19:46:59+00,DOT_ADMIN,2022/10/17 19:46:59+00
-71.0050030003652,42.251585999935,647776,door-qnctr-busway,,Quincy Center - Hancock St,Quincy Center - Hancock St,,,42.251586,-71.005003,,,,level_ground,2,place-qnctr,1,Quincy,,,,,,,,,,,,DOT_ADMIN,2022/10/17 19:46:59+00,DOT_ADMIN,2022/10/17 19:46:59+00
-70.9925860002138,42.4077600001348,647778,70057,70057,Revere Beach,Revere Beach - Blue Line - Bowdoin,1,Bowdoin,42.40776,-70.992586,RapidTransit,,https://www.mbta.com/stops/place-rbmnl,level_-1_platform,0,place-rbmnl,1,Revere,,,1,,,,,,,,,DOT_ADMIN,2022/10/17 19:46:59+00,DOT_ADMIN,2022/10/17 19:46:59+00
-70.9924969998547,42.4078739996742,647779,70058,70058,Revere Beach,Revere Beach - Blue Line - Wonderland,2,Wonderland,42.407874,-70.992497,RapidTransit,,https://www.mbta.com/stops/place-rbmnl,level_-1_platform,0,place-rbmnl,1,Revere,,,1,,,,,,,,,DOT_ADMIN,2022/10/17 19:46:59+00,DOT_ADMIN,2022/10/17 19:46:59+00
-70.9925500001816,42.4084549995899,647780,door-rbmnl-beach,,Revere Beach - Beach St,Revere Beach - Beach St,,,42.408455,-70.99255,,,,level_in_street,2,place-rbmnl,2,Revere,,,,,,,,,,,,DOT_ADMIN,2022/10/17 19:46:59+00,DOT_ADMIN,2022/10/17 19:46:59+00
-70.9926330003523,42.4078199997194,647781,door-rbmnl-main,,"Revere Beach - Ocean Ave, Shirley Ave","Revere Beach - Ocean Ave, Shirley Ave",,,42.40782,-70.992633,,,,level_in_street,2,place-rbmnl,1,Revere,,,,,,,,,,,,DOT_ADMIN,2022/10/17 19:46:59+00,DOT_ADMIN,2022/10/17 19:46:59+00
-70.9921099996875,42.4078999997571,647782,door-rbmnl-ocean,,Revere Beach - 300 Ocean Ave,Revere Beach - 300 Ocean Ave,,,42.4079,-70.99211,,,,level_-0.5_building,2,place-rbmnl,2,Revere,,,,,,,,,,,,DOT_ADMIN,2022/10/17 19:46:59+00,DOT_ADMIN,2022/10/17 19:46:59+00
-70.9923629994526,42.4073309999457,647783,door-rbmnl-shirley,,Revere Beach - Shirley Ave,Revere Beach - Shirley Ave,,,42.407331,-70.992363,,,,level_in_street,2,place-rbmnl,2,Revere,,,,,,,,,,,,DOT_ADMIN,2022/10/17 19:46:59+00,DOT_ADMIN,2022/10/17 19:46:59+00
-71.0961209999146,42.330670999558,647785,70008,70008,Roxbury Crossing,Roxbury Crossing - Orange Line - Forest Hills,,Forest Hills,42.330671,-71.096121,RapidTransit,,https://www.mbta.com/stops/place-rcmnl,level_-1_platform,0,place-rcmnl,1,Boston,,,1,,,,,,,,,DOT_ADMIN,2022/10/17 19:46:59+00,DOT_ADMIN,2022/10/17 19:46:59+00
-71.096039999519,42.330639999605,647786,70009,70009,Roxbury Crossing,Roxbury Crossing - Orange Line - Oak Grove,,Oak Grove,42.33064,-71.09604,RapidTransit,,https://www.mbta.com/stops/place-rcmnl,level_-1_platform,0,place-rcmnl,1,Boston,,,1,,,,,,,,,DOT_ADMIN,2022/10/17 19:46:59+00,DOT_ADMIN,2022/10/17 19:46:59+00
-71.0954800003893,42.3314149996211,647787,door-rcmnl-tremont,,Roxbury Crossing - Tremont St,Roxbury Crossing - Tremont St,,,42.331415,-71.09548,,,,level_in_street,2,place-rcmnl,1,Boston,,,,,,,,,,,,DOT_ADMIN,2022/10/17 19:46:59+00,DOT_ADMIN,2022/10/17 19:46:59+00
-71.2522559994113,42.3373169998107,647790,70160,70160,Riverside,Riverside - Green Line - Park Street & North,,Park Street & North,42.337317,-71.252256,RapidTransit,,https://www.mbta.com/stops/place-river,level_1_platform,0,place-river,1,Newton,,,0,,,,,,,,,DOT_ADMIN,2022/10/17 19:46:59+00,DOT_ADMIN,2022/10/17 19:46:59+00
-71.2522360002856,42.3373480003996,647791,70161,70161,Riverside,Riverside - Green Line - Park Street & North,,Park Street & North,42.337348,-71.252236,RapidTransit,,https://www.mbta.com/stops/place-river,level_1_platform,0,place-river,1,Newton,,,0,,,,,,,,,DOT_ADMIN,2022/10/17 19:46:59+00,DOT_ADMIN,2022/10/17 19:46:59+00
-71.2525230004777,42.3372580001848,647792,door-river-estairs,,"Riverside - Grove Street, Parking","Riverside - Grove Street, Parking",,,42.337258,-71.252523,,,,level_ground,2,place-river,2,Newton,,,,,,,,,,,,DOT_ADMIN,2022/10/17 19:46:59+00,DOT_ADMIN,2022/10/17 19:46:59+00
-71.2529480005245,42.3372700003701,647793,door-river-ramp,,"Riverside - Buses, Parking (Ramp)","Riverside - Buses, Parking (Ramp)",,,42.33727,-71.252948,,,,level_ground,2,place-river,1,Newton,,,,,,,,,,,,DOT_ADMIN,2022/10/17 19:46:59+00,DOT_ADMIN,2022/10/17 19:46:59+00
-71.2528579995962,42.3373279996664,647794,door-river-wstairs,,"Riverside - Buses, Parking (Stairs)","Riverside - Buses, Parking (Stairs)",,,42.337328,-71.252858,,,,level_ground,2,place-river,2,Newton,,,,,,,,,,,,DOT_ADMIN,2022/10/17 19:46:59+00,DOT_ADMIN,2022/10/17 19:46:59+00
-71.147879000118,42.335180999693,647797,70174,70174,Reservoir,Reservoir - Green Line - Park Street & North,,Park Street & North,42.335181,-71.147879,RapidTransit,,https://www.mbta.com/stops/place-rsmnl,level_-1_platform,0,place-rsmnl,1,Brookline,,,0,,,,,,,,,DOT_ADMIN,2022/10/17 19:46:59+00,DOT_ADMIN,2022/10/17 19:46:59+00
-71.1486010000442,42.335162999997,647798,70175,70175,Reservoir,Reservoir - Green Line - (D) Riverside,,Riverside,42.335163,-71.148601,RapidTransit,,https://www.mbta.com/stops/place-rsmnl,level_-1_platform,0,place-rsmnl,1,Brookline,,,0,,,,,,,,,DOT_ADMIN,2022/10/17 19:46:59+00,DOT_ADMIN,2022/10/17 19:46:59+00
-71.148606999568,42.334974999763,647799,door-rsmnl-eramp,,"Reservoir - Chestnut Hill Ave, Cleveland Circle (Ramp)","Reservoir - Chestnut Hill Ave, Cleveland Circle (Ramp)",,,42.334975,-71.148607,,,,level_ground,2,place-rsmnl,1,Brookline,,,,,,,,,,,,DOT_ADMIN,2022/10/17 19:46:59+00,DOT_ADMIN,2022/10/17 19:46:59+00
-71.1487000004267,42.3350510002622,647800,door-rsmnl-estairs,,"Reservoir - Chestnut Hill Ave, Buses (Park St & North)","Reservoir - Chestnut Hill Ave, Buses (Park St & North)",,,42.335051,-71.1487,,,,level_ground,2,place-rsmnl,2,Brookline,,,,,,,,,,,,DOT_ADMIN,2022/10/17 19:46:59+00,DOT_ADMIN,2022/10/17 19:46:59+00
-71.1498099994152,42.3352710003802,647801,door-rsmnl-wramp,,Reservoir - Cleveland Circle (Ramp),Reservoir - Cleveland Circle (Ramp),,,42.335271,-71.14981,,,,level_in_street,2,place-rsmnl,1,Brookline,,,,,,,,,,,,DOT_ADMIN,2022/10/17 19:46:59+00,DOT_ADMIN,2022/10/17 19:46:59+00
-71.1487750000628,42.3351570001037,647802,door-rsmnl-wstairs,,"Reservoir - Chestnut Hill Ave, Buses (Riverside)","Reservoir - Chestnut Hill Ave, Buses (Riverside)",,,42.335157,-71.148775,,,,level_ground,2,place-rsmnl,2,Brookline,,,,,,,,,,,,DOT_ADMIN,2022/10/17 19:46:59+00,DOT_ADMIN,2022/10/17 19:46:59+00
-71.0896840004243,42.3364900004363,647807,70010,70010,Ruggles,Ruggles - Orange Line - Forest Hills,,Forest Hills,42.33649,-71.089684,RapidTransit,,https://www.mbta.com/stops/place-rugg,level_0_orange_platform,0,place-rugg,1,Boston,,,1,,,,,,,,,DOT_ADMIN,2022/10/17 19:46:59+00,DOT_ADMIN,2022/10/17 19:46:59+00
-71.0896350003166,42.336451000386,647808,70011,70011,Ruggles,Ruggles - Orange Line - Oak Grove,,Oak Grove,42.336451,-71.089635,RapidTransit,,https://www.mbta.com/stops/place-rugg,level_0_orange_platform,0,place-rugg,1,Boston,,,1,,,,,,,,,DOT_ADMIN,2022/10/17 19:46:59+00,DOT_ADMIN,2022/10/17 19:46:59+00
-71.089194000346,42.3364729995975,647813,door-rugg-buses,,"Ruggles - Columbus Ave, Buses","Ruggles - Columbus Ave, Buses",,,42.336473,-71.089194,,,,level_ground,2,place-rugg,1,Boston,,,,,,,,,,,,DOT_ADMIN,2022/10/17 19:46:59+00,DOT_ADMIN,2022/10/17 19:46:59+00
-71.0889059997713,42.3358730002962,647814,door-rugg-columbus,,"Ruggles - Columbus Ave, Tremont St","Ruggles - Columbus Ave, Tremont St",,,42.335873,-71.088906,,,,level_in_street,2,place-rugg,1,Boston,,,,,,,,,,,,DOT_ADMIN,2022/10/17 19:46:59+00,DOT_ADMIN,2022/10/17 19:46:59+00
-71.0894210002752,42.337010000086,647815,door-rugg-forsyth,,"Ruggles - Northeastern, Forsyth St","Ruggles - Northeastern, Forsyth St",,,42.33701,-71.089421,,,,level_in_street,2,place-rugg,1,Boston,,,,,,,,,,,,DOT_ADMIN,2022/10/17 19:46:59+00,DOT_ADMIN,2022/10/17 19:46:59+00
-71.0903579997633,42.3358909998068,647816,door-rugg-ruggles,,Ruggles - Ruggles St,Ruggles - Ruggles St,,,42.335891,-71.090358,,,,level_1_in_street,2,place-rugg,2,Boston,,,,,,,,,,,,DOT_ADMIN,2022/10/17 19:46:59+00,DOT_ADMIN,2022/10/17 19:46:59+00
-71.0870780004766,42.3381869998251,647817,door-rugg-track2,,Ruggles - Columbus Ave (Commuter Rail - Track 2),Ruggles - Columbus Ave (Commuter Rail - Track 2),,,42.338187,-71.087078,,,,level_in_street,2,place-rugg,1,Boston,,,,,,,,,,,,DOT_ADMIN,2022/10/17 19:46:59+00,DOT_ADMIN,2022/10/17 19:46:59+00
-71.0895009996959,42.336820999967,647818,door-rugg-upper,,Ruggles - Upper Busway,Ruggles - Upper Busway,,,42.336821,-71.089501,,,,level_1_ground,2,place-rugg,1,Boston,,,,,,,,,,,,DOT_ADMIN,2022/10/17 19:46:59+00,DOT_ADMIN,2022/10/17 19:46:59+00
-71.111925000317,42.3313910000305,647820,70255,70255,Riverway,Riverway - Green Line - (E) Heath Street,,Heath Street,42.331391,-71.111925,RapidTransit,,https://www.mbta.com/stops/place-rvrwy,level_in_street,0,place-rvrwy,2,Boston,,,0,,,,,,,,,DOT_ADMIN,2022/10/17 19:46:59+00,DOT_ADMIN,2022/10/17 19:46:59+00
-71.1119610000186,42.3318710004107,647821,70256,70256,Riverway,Riverway - Green Line - Park Street & North,,Park Street & North,42.331871,-71.111961,RapidTransit,,https://www.mbta.com/stops/place-rvrwy,level_in_street,0,place-rvrwy,2,Boston,,,0,,,,,,,,,DOT_ADMIN,2022/10/17 19:46:59+00,DOT_ADMIN,2022/10/17 19:46:59+00
-71.104248000045,42.3170619996724,647823,70004,70004,Stony Brook,Stony Brook - Orange Line - Forest Hills,,Forest Hills,42.317062,-71.104248,RapidTransit,,https://www.mbta.com/stops/place-sbmnl,level_-1_platform,0,place-sbmnl,1,Boston,,,1,,,,,,,,,DOT_ADMIN,2022/10/17 19:46:59+00,DOT_ADMIN,2022/10/17 19:46:59+00
-71.104248000045,42.3170619996724,647824,70005,70005,Stony Brook,Stony Brook - Orange Line - Oak Grove,,Oak Grove,42.317062,-71.104248,RapidTransit,,https://www.mbta.com/stops/place-sbmnl,level_-1_platform,0,place-sbmnl,1,Boston,,,1,,,,,,,,,DOT_ADMIN,2022/10/17 19:46:59+00,DOT_ADMIN,2022/10/17 19:46:59+00
-71.1042160002906,42.3170999999307,647825,door-sbmnl-main,,Stony Brook - Amory St,Stony Brook - Amory St,,,42.3171,-71.104216,,,,level_in_street,2,place-sbmnl,1,Boston,,,,,,,,,,,,DOT_ADMIN,2022/10/17 19:46:59+00,DOT_ADMIN,2022/10/17 19:46:59+00
-70.9973230000463,42.3904220003587,647827,70053,70053,Suffolk Downs,Suffolk Downs - Blue Line - Bowdoin,1,Bowdoin,42.390422,-70.997323,RapidTransit,,https://www.mbta.com/stops/place-sdmnl,level_0_platform,0,place-sdmnl,1,Boston,,,1,,,,,,,,,DOT_ADMIN,2022/10/17 19:46:59+00,DOT_ADMIN,2022/10/17 19:46:59+00
-70.9970300004648,42.3906100000846,647828,70054,70054,Suffolk Downs,Suffolk Downs - Blue Line - Wonderland,2,Wonderland,42.39061,-70.99703,RapidTransit,,https://www.mbta.com/stops/place-sdmnl,level_0_platform,0,place-sdmnl,1,Boston,,,1,,,,,,,,,DOT_ADMIN,2022/10/17 19:46:59+00,DOT_ADMIN,2022/10/17 19:46:59+00
-70.9969640005393,42.3903670002741,647829,door-sdmnl-benning,,Suffolk Downs - Bennington St,Suffolk Downs - Bennington St,,,42.390367,-70.996964,,,,level_in_street,2,place-sdmnl,1,Boston,,,,,,,,,,,,DOT_ADMIN,2022/10/17 19:46:59+00,DOT_ADMIN,2022/10/17 19:46:59+00
-70.9973880002092,42.3906399999975,647830,door-sdmnl-walley,,Suffolk Downs - Walley St,Suffolk Downs - Walley St,,,42.39064,-70.997388,,,,level_in_street,2,place-sdmnl,1,Boston,,,,,,,,,,,,DOT_ADMIN,2022/10/17 19:46:59+00,DOT_ADMIN,2022/10/17 19:46:59+00
-71.0536779996832,42.3106030004461,647832,70087,70087,Savin Hill,Savin Hill - Red Line - Ashmont,,Ashmont,42.310603,-71.053678,RapidTransit,,https://www.mbta.com/stops/place-shmnl,level_0_platform,0,place-shmnl,1,Boston,,,1,,,,,,,,,DOT_ADMIN,2022/10/17 19:46:59+00,DOT_ADMIN,2022/10/17 19:46:59+00
-71.0536119996272,42.310590999676,647833,70088,70088,Savin Hill,Savin Hill - Red Line - Alewife,,Alewife,42.310591,-71.053612,RapidTransit,,https://www.mbta.com/stops/place-shmnl,level_0_platform,0,place-shmnl,1,Boston,,,1,,,,,,,,,DOT_ADMIN,2022/10/17 19:46:59+00,DOT_ADMIN,2022/10/17 19:46:59+00
-71.0533019996677,42.3112990003597,647834,door-shmnl-savin,,Savin Hill - Savin Hill Ave,Savin Hill - Savin Hill Ave,,,42.311299,-71.053302,,,,level_1_in_street,2,place-shmnl,1,Boston,,,,,,,,,,,,DOT_ADMIN,2022/10/17 19:46:59+00,DOT_ADMIN,2022/10/17 19:46:59+00
-71.0537009994283,42.3108560003386,647835,door-shmnl-sydney,,Savin Hill - South Sydney St,Savin Hill - South Sydney St,,,42.310856,-71.053701,,,,level_ground,2,place-shmnl,1,Boston,,,,,,,,,,,,DOT_ADMIN,2022/10/17 19:46:59+00,DOT_ADMIN,2022/10/17 19:46:59+00
-71.107696999908,42.3458839997537,647837,70211,70211,Saint Mary's Street,Saint Mary's Street - Green Line - (C) Cleveland Circle,,Cleveland Circle,42.345884,-71.107697,RapidTransit,,https://www.mbta.com/stops/place-smary,level_median,0,place-smary,1,Brookline,,,0,,,,,,,,,DOT_ADMIN,2022/10/17 19:46:59+00,DOT_ADMIN,2022/10/17 19:46:59+00
-71.1071659999194,42.3460069995595,647838,70212,70212,Saint Mary's Street,Saint Mary's Street - Green Line - Park Street & North,,Park Street & North,42.346007,-71.107166,RapidTransit,,https://www.mbta.com/stops/place-smary,level_median,0,place-smary,1,Brookline,,,0,,,,,,,,,DOT_ADMIN,2022/10/17 19:46:59+00,DOT_ADMIN,2022/10/17 19:46:59+00
-71.065738000565,42.2931260001261,647840,70091,70091,Shawmut,Shawmut - Red Line - Ashmont,,Ashmont,42.293126,-71.065738,RapidTransit,,https://www.mbta.com/stops/place-smmnl,level_-1_platform,0,place-smmnl,1,Boston,,,1,,,,,,,,,DOT_ADMIN,2022/10/17 19:46:59+00,DOT_ADMIN,2022/10/17 19:46:59+00
-71.065738000565,42.2931260001261,647841,70092,70092,Shawmut,Shawmut - Red Line - Alewife,,Alewife,42.293126,-71.065738,RapidTransit,,https://www.mbta.com/stops/place-smmnl,level_-1_platform,0,place-smmnl,1,Boston,,,1,,,,,,,,,DOT_ADMIN,2022/10/17 19:46:59+00,DOT_ADMIN,2022/10/17 19:46:59+00
-71.0657839999179,42.2930669997805,647842,door-smmnl-clemen,,"Shawmut - Clementine Park, Centre St","Shawmut - Clementine Park, Centre St",,,42.293067,-71.065784,,,,level_ground,2,place-smmnl,1,Boston,,,,,,,,,,,,DOT_ADMIN,2022/10/17 19:46:59+00,DOT_ADMIN,2022/10/17 19:46:59+00
-71.1570570000539,42.3393710003429,647844,70110,70110,South Street,South Street - Green Line - Park Street & North,,Park Street & North,42.339371,-71.157057,RapidTransit,,https://www.mbta.com/stops/place-sougr,level_median,0,place-sougr,2,Boston,,,0,,,,,,,,,DOT_ADMIN,2022/10/17 19:46:59+00,DOT_ADMIN,2022/10/17 19:46:59+00
-71.1574990001692,42.3395809996764,647845,70111,70111,South Street,South Street - Green Line - (B) Boston College,,Boston College,42.339581,-71.157499,RapidTransit,,https://www.mbta.com/stops/place-sougr,level_median,0,place-sougr,2,Boston,,,0,,,,,,,,,DOT_ADMIN,2022/10/17 19:46:59+00,DOT_ADMIN,2022/10/17 19:46:59+00
-71.0676660001735,42.3666639996954,647847,70207,70207,Science Park/West End,Science Park/West End - Green Line - Lechmere & North,,Lechmere & North,42.366664,-71.067666,RapidTransit,,https://www.mbta.com/stops/place-spmnl,level_2_platform,0,place-spmnl,1,Boston,,,0,,,,,,,,,DOT_ADMIN,2022/10/17 19:46:59+00,DOT_ADMIN,2022/10/17 19:46:59+00
-71.0676660001735,42.3666639996954,647848,70208,70208,Science Park/West End,Science Park/West End - Green Line - Copley & West,,Copley & West,42.366664,-71.067666,RapidTransit,,https://www.mbta.com/stops/place-spmnl,level_2_platform,0,place-spmnl,1,Boston,,,0,,,,,,,,,DOT_ADMIN,2022/10/17 19:46:59+00,DOT_ADMIN,2022/10/17 19:46:59+00
-71.06775700012,42.3668700000339,647849,door-spmnl-nashua,,"Science Park/West End - Nashua St, Spaulding Rehab Hospital (Stairs)","Science Park/West End - Nashua St, Spaulding Rehab Hospital (Stairs)",,,42.36687,-71.067757,,,,level_ground,2,place-spmnl,2,Boston,,,,,,,,,,,,DOT_ADMIN,2022/10/17 19:46:59+00,DOT_ADMIN,2022/10/17 19:46:59+00
-71.0677329995007,42.3668560003801,647850,door-spmnl-nashuael,,"Science Park/West End - Nashua St, Spaulding Rehab Hospital (Elevator)","Science Park/West End - Nashua St, Spaulding Rehab Hospital (Elevator)",,,42.366856,-71.067733,,,,level_ground,2,place-spmnl,1,Boston,,,,,,,,,,,,DOT_ADMIN,2022/10/17 19:46:59+00,DOT_ADMIN,2022/10/17 19:46:59+00
-71.0679980001933,42.366730000373,647851,door-spmnl-obrien,,"Science Park/West End - Monsignor O'Brien Hwy, Museum of Science (Stairs)","Science Park/West End - Monsignor O'Brien Hwy, Museum of Science (Stairs)",,,42.36673,-71.067998,,,,level_ground,2,place-spmnl,2,Boston,,,,,,,,,,,,DOT_ADMIN,2022/10/17 19:46:59+00,DOT_ADMIN,2022/10/17 19:46:59+00
-71.0679659994563,42.3666500002705,647852,door-spmnl-obrienel,,"Science Park/West End - Monsignor O'Brien Hwy, Museum of Science (Elevator)","Science Park/West End - Monsignor O'Brien Hwy, Museum of Science (Elevator)",,,42.36665,-71.067966,,,,level_ground,2,place-spmnl,1,Boston,,,,,,,,,,,,DOT_ADMIN,2022/10/17 19:46:59+00,DOT_ADMIN,2022/10/17 19:46:59+00
-71.0552419994473,42.3522710000191,647854,70079,70079,South Station,South Station - Red Line - Ashmont/Braintree,,Ashmont/Braintree,42.352271,-71.055242,RapidTransit,,https://www.mbta.com/stops/place-sstat,level_-3_red_platform,0,place-sstat,1,Boston,,,1,,,,,,,,,DOT_ADMIN,2022/10/17 19:46:59+00,DOT_ADMIN,2022/10/17 19:46:59+00
-71.0552419994473,42.3522710000191,647855,70080,70080,South Station,South Station - Red Line - Alewife,,Alewife,42.352271,-71.055242,RapidTransit,,https://www.mbta.com/stops/place-sstat,level_-3_red_platform,0,place-sstat,1,Boston,,,1,,,,,,,,,DOT_ADMIN,2022/10/17 19:46:59+00,DOT_ADMIN,2022/10/17 19:46:59+00
-71.0557159998282,42.3515509995805,647872,door-sstat-atlantic,,South Station - Atlantic Ave,South Station - Atlantic Ave,,,42.351551,-71.055716,,,,level_in_street,2,place-sstat,1,Boston,,,,,,,,,,,,DOT_ADMIN,2022/10/17 19:46:59+00,DOT_ADMIN,2022/10/17 19:46:59+00
-71.0561209995553,42.3506899997707,647873,door-sstat-bus,,South Station - South Station Bus Terminal,South Station - South Station Bus Terminal,,,42.35069,-71.056121,,,,level_ground,2,place-sstat,1,Boston,,,,,,,,,,,,DOT_ADMIN,2022/10/17 19:46:59+00,DOT_ADMIN,2022/10/17 19:46:59+00
-71.0555050000468,42.3528859999401,647874,door-sstat-dewey,,"South Station - Dewey Sq (Summer St, Atlantic Ave)","South Station - Dewey Sq (Summer St, Atlantic Ave)",,,42.352886,-71.055505,,,,level_in_street,2,place-sstat,1,Boston,,,,,,,,,,,,DOT_ADMIN,2022/10/17 19:46:59+00,DOT_ADMIN,2022/10/17 19:46:59+00
-71.0558239994938,42.3525439997723,647875,door-sstat-finctr,,South Station - Financial Center,South Station - Financial Center,,,42.352544,-71.055824,,,,level_in_street,2,place-sstat,2,Boston,,,,,,,,,,,,DOT_ADMIN,2022/10/17 19:46:59+00,DOT_ADMIN,2022/10/17 19:46:59+00
-71.0552299995257,42.3523020001839,647876,door-sstat-main,,"South Station - Main Entry, Dewey Square","South Station - Main Entry, Dewey Square",,,42.352302,-71.05523,,,,level_in_street,2,place-sstat,1,Boston,,,,,,,,,,,,DOT_ADMIN,2022/10/17 19:46:59+00,DOT_ADMIN,2022/10/17 19:46:59+00
-71.0550709997193,42.3523630002024,647877,door-sstat-outmain,,"South Station - Summer St, Atlantic Ave, Commuter Rail","South Station - Summer St, Atlantic Ave, Commuter Rail",,,42.352363,-71.055071,,,,level_in_street,2,place-sstat,2,Boston,,,,,,,,,,,,DOT_ADMIN,2022/10/17 19:46:59+00,DOT_ADMIN,2022/10/17 19:46:59+00
-71.0550130005474,42.3526770002579,647878,door-sstat-reserve,,"South Station - Atlantic Ave, Summer St","South Station - Atlantic Ave, Summer St",,,42.352677,-71.055013,,,,level_in_street,2,place-sstat,2,Boston,,,,,,,,,,,,DOT_ADMIN,2022/10/17 19:46:59+00,DOT_ADMIN,2022/10/17 19:46:59+00
-71.0544020001821,42.3517870001492,647879,door-sstat-summer,,South Station - Summer St,South Station - Summer St,,,42.351787,-71.054402,,,,level_in_street,2,place-sstat,1,Boston,,,,,,,,,,,,DOT_ADMIN,2022/10/17 19:46:59+00,DOT_ADMIN,2022/10/17 19:46:59+00
-71.0547289999766,42.3511079995584,647880,door-sstat-usps,,South Station - USPS Post Office,South Station - USPS Post Office,,,42.351108,-71.054729,,,,level_ground,2,place-sstat,1,Boston,,,,,,,,,,,,DOT_ADMIN,2022/10/17 19:46:59+00,DOT_ADMIN,2022/10/17 19:46:59+00
-71.0575980004968,42.3589780004551,647882,70022,70022,State,State - Orange Line - Forest Hills,,Forest Hills,42.358978,-71.057598,RapidTransit,,https://www.mbta.com/stops/place-state,level_-1_up_platform,0,place-state,1,Boston,,,1,,,,,,,,,DOT_ADMIN,2022/10/17 19:46:59+00,DOT_ADMIN,2022/10/17 19:46:59+00
-71.0575980004968,42.3589780004551,647883,70023,70023,State,State - Orange Line - Oak Grove,,Oak Grove,42.358978,-71.057598,RapidTransit,,https://www.mbta.com/stops/place-state,level_-2_oak_grove_platform,0,place-state,1,Boston,,,1,,,,,,,,,DOT_ADMIN,2022/10/17 19:46:59+00,DOT_ADMIN,2022/10/17 19:46:59+00
-71.0575980004968,42.3589780004551,647884,70041,70041,State,State - Blue Line - Bowdoin,,Bowdoin,42.358978,-71.057598,RapidTransit,,https://www.mbta.com/stops/place-state,level_-1_up_platform,0,place-state,1,Boston,,,1,,,,,,,,,DOT_ADMIN,2022/10/17 19:46:59+00,DOT_ADMIN,2022/10/17 19:46:59+00
-71.0575980004968,42.3589780004551,647885,70042,70042,State,State - Blue Line - Wonderland,,Wonderland,42.358978,-71.057598,RapidTransit,,https://www.mbta.com/stops/place-state,level_-1_up_platform,0,place-state,1,Boston,,,1,,,,,,,,,DOT_ADMIN,2022/10/17 19:46:59+00,DOT_ADMIN,2022/10/17 19:46:59+00
-71.0576150001532,42.3594350002856,647886,door-state-cityhall,,State - City Hall,State - City Hall,,,42.359435,-71.057615,,,,level_in_street,2,place-state,2,Boston,,,,,,,,,,,,DOT_ADMIN,2022/10/17 19:46:59+00,DOT_ADMIN,2022/10/17 19:46:59+00
-71.0566990004863,42.3591150002914,647887,door-state-congress,,State - Congress St (North),State - Congress St (North),,,42.359115,-71.056699,,,,level_in_street,2,place-state,1,Boston,,,,,,,,,,,,DOT_ADMIN,2022/10/17 19:46:59+00,DOT_ADMIN,2022/10/17 19:46:59+00
-71.056498999842,42.3584129998707,647888,door-state-exchange,,State - Congress St (Exchange Place),State - Congress St (Exchange Place),,,42.358413,-71.056499,,,,level_in_street,2,place-state,1,Boston,,,,,,,,,,,,DOT_ADMIN,2022/10/17 19:46:59+00,DOT_ADMIN,2022/10/17 19:46:59+00
-71.0583940000075,42.3571500003946,647889,door-state-meeting,,"State - Washington St, Milk St","State - Washington St, Milk St",,,42.35715,-71.058394,,,,level_in_street,2,place-state,1,Boston,,,,,,,,,,,,DOT_ADMIN,2022/10/17 19:46:59+00,DOT_ADMIN,2022/10/17 19:46:59+00
-71.0572979994385,42.3587350000261,647890,door-state-state,,"State - Old State House, State St","State - Old State House, State St",,,42.358735,-71.057298,,,,level_in_street,2,place-state,2,Boston,,,,,,,,,,,,DOT_ADMIN,2022/10/17 19:46:59+00,DOT_ADMIN,2022/10/17 19:46:59+00
-71.0574120001975,42.3574869999735,647891,door-state-water,,"State - Devonshire St, Water St","State - Devonshire St, Water St",,,42.357487,-71.057412,,,,level_in_street,2,place-state,2,Boston,,,,,,,,,,,,DOT_ADMIN,2022/10/17 19:46:59+00,DOT_ADMIN,2022/10/17 19:46:59+00
-71.1460889995818,42.3415889995668,647893,70116,70116,Sutherland Road,Sutherland Road - Green Line - Park Street & North,,Park Street & North,42.341589,-71.146089,RapidTransit,,https://www.mbta.com/stops/place-sthld,level_median,0,place-sthld,2,Boston,,,0,,,,,,,,,DOT_ADMIN,2022/10/17 19:46:59+00,DOT_ADMIN,2022/10/17 19:46:59+00
-71.1466070005311,42.3415770003035,647894,70117,70117,Sutherland Road,Sutherland Road - Green Line - (B) Boston College,,Boston College,42.341577,-71.146607,RapidTransit,,https://www.mbta.com/stops/place-sthld,level_median,0,place-sthld,2,Boston,,,0,,,,,,,,,DOT_ADMIN,2022/10/17 19:46:59+00,DOT_ADMIN,2022/10/17 19:46:59+00
-71.1169269997798,42.343340000428,647896,70217,70217,Saint Paul Street,Saint Paul Street - Green Line - (C) Cleveland Circle,,Cleveland Circle,42.34334,-71.116927,RapidTransit,,https://www.mbta.com/stops/place-stpul,level_median,0,place-stpul,2,Brookline,,,0,,,,,,,,,DOT_ADMIN,2022/10/17 19:46:59+00,DOT_ADMIN,2022/10/17 19:46:59+00
-71.1174980005023,42.3431179999815,647897,70218,70218,Saint Paul Street,Saint Paul Street - Green Line - Park Street & North,,Park Street & North,42.343118,-71.117498,RapidTransit,,https://www.mbta.com/stops/place-stpul,level_median,0,place-stpul,2,Brookline,,,0,,,,,,,,,DOT_ADMIN,2022/10/17 19:46:59+00,DOT_ADMIN,2022/10/17 19:46:59+00
-71.0769940000674,42.383975000122,647913,70030,70030,Sullivan Square,Sullivan Square - Orange Line - Forest Hills,1,Forest Hills,42.383975,-71.076994,RapidTransit,,https://www.mbta.com/stops/place-sull,level_-1_platform,0,place-sull,1,Boston,,,1,,,,,,,,,DOT_ADMIN,2022/10/17 19:46:59+00,DOT_ADMIN,2022/10/17 19:46:59+00
-71.0769940000674,42.383975000122,647914,70031,70031,Sullivan Square,Sullivan Square - Orange Line - Oak Grove,2,Oak Grove,42.383975,-71.076994,RapidTransit,,https://www.mbta.com/stops/place-sull,level_-1_platform,0,place-sull,1,Boston,,,1,,,,,,,,,DOT_ADMIN,2022/10/17 19:46:59+00,DOT_ADMIN,2022/10/17 19:46:59+00
-71.0766350004724,42.3843089996549,647915,door-sull-main,,"Sullivan Square - Buses, Parking, Street","Sullivan Square - Buses, Parking, Street",,,42.384309,-71.076635,,,,level_ground,2,place-sull,1,Boston,,,,,,,,,,,,DOT_ADMIN,2022/10/17 19:46:59+00,DOT_ADMIN,2022/10/17 19:46:59+00
-71.1256519998382,42.3411199996291,647917,70223,70223,Summit Avenue,Summit Avenue - Green Line - (C) Cleveland Circle,,Cleveland Circle,42.34112,-71.125652,RapidTransit,,https://www.mbta.com/stops/place-sumav,level_median,0,place-sumav,2,Brookline,,,0,,,,,,,,,DOT_ADMIN,2022/10/17 19:46:59+00,DOT_ADMIN,2022/10/17 19:46:59+00
-71.1257589994558,42.3410270004043,647918,70224,70224,Summit Avenue,Summit Avenue - Green Line - Park Street & North,,Park Street & North,42.341027,-71.125759,RapidTransit,,https://www.mbta.com/stops/place-sumav,level_median,0,place-sumav,2,Brookline,,,0,,,,,,,,,DOT_ADMIN,2022/10/17 19:46:59+00,DOT_ADMIN,2022/10/17 19:46:59+00
-71.0850560002113,42.3426869996386,647920,70241,70241,Symphony,Symphony - Green Line - (E) Heath Street,,Heath Street,42.342687,-71.085056,RapidTransit,,https://www.mbta.com/stops/place-symcl,level_-1_platform,0,place-symcl,2,Boston,,,0,,,,,,,,,DOT_ADMIN,2022/10/17 19:46:59+00,DOT_ADMIN,2022/10/17 19:46:59+00
-71.0850560002113,42.3426869996386,647921,70242,70242,Symphony,Symphony - Green Line - Park Street & North,,Park Street & North,42.342687,-71.085056,RapidTransit,,https://www.mbta.com/stops/place-symcl,level_-1_platform,0,place-symcl,2,Boston,,,0,,,,,,,,,DOT_ADMIN,2022/10/17 19:46:59+00,DOT_ADMIN,2022/10/17 19:46:59+00
-71.0845110005978,42.3427639997454,647922,door-symcl-ebchurch,,"Symphony - Massachusetts Ave, First Church of Christ","Symphony - Massachusetts Ave, First Church of Christ",,,42.342764,-71.084511,,,,level_in_street,2,place-symcl,2,Boston,,,,,,,,,,,,DOT_ADMIN,2022/10/17 19:46:59+00,DOT_ADMIN,2022/10/17 19:46:59+00
-71.0848619996093,42.3424570002304,647923,door-symcl-ebsymphony,,"Symphony - Massachusetts Ave, Symphony Hall","Symphony - Massachusetts Ave, Symphony Hall",,,42.342457,-71.084862,,,,level_in_street,2,place-symcl,2,Boston,,,,,,,,,,,,DOT_ADMIN,2022/10/17 19:46:59+00,DOT_ADMIN,2022/10/17 19:46:59+00
-71.0851949997466,42.3430749996783,647924,door-symcl-falmouth,,"Symphony - First Church, Falmouth St","Symphony - First Church, Falmouth St",,,42.343075,-71.085195,,,,level_in_street,2,place-symcl,2,Boston,,,,,,,,,,,,DOT_ADMIN,2022/10/17 19:46:59+00,DOT_ADMIN,2022/10/17 19:46:59+00
-71.0850210005822,42.3429569997835,647925,door-symcl-hunte,,"Symphony - Massachusetts Ave, Huntington Ave (East)","Symphony - Massachusetts Ave, Huntington Ave (East)",,,42.342957,-71.085021,,,,level_in_street,2,place-symcl,2,Boston,,,,,,,,,,,,DOT_ADMIN,2022/10/17 19:46:59+00,DOT_ADMIN,2022/10/17 19:46:59+00
-71.0851849994098,42.3428220003241,647926,door-symcl-huntw,,"Symphony - Massachusetts Ave, Huntington Ave (West)","Symphony - Massachusetts Ave, Huntington Ave (West)",,,42.342822,-71.085185,,,,level_in_street,2,place-symcl,2,Boston,,,,,,,,,,,,DOT_ADMIN,2022/10/17 19:46:59+00,DOT_ADMIN,2022/10/17 19:46:59+00
-71.0853600004404,42.3429410002112,647927,door-symcl-westland,,"Symphony - Westland Ave, Symphony Hall","Symphony - Westland Ave, Symphony Hall",,,42.342941,-71.08536,,,,level_in_street,2,place-symcl,2,Boston,,,,,,,,,,,,DOT_ADMIN,2022/10/17 19:46:59+00,DOT_ADMIN,2022/10/17 19:46:59+00
-71.1387310004155,42.3384979999961,647929,70231,70231,Tappan Street,Tappan Street - Green Line - (C) Cleveland Circle,,Cleveland Circle,42.338498,-71.138731,RapidTransit,,https://www.mbta.com/stops/place-tapst,level_median,0,place-tapst,2,Brookline,,,0,,,,,,,,,DOT_ADMIN,2022/10/17 19:46:59+00,DOT_ADMIN,2022/10/17 19:46:59+00
-71.138189999907,42.3385670003769,647930,70232,70232,Tappan Street,Tappan Street - Green Line - Park Street & North,,Park Street & North,42.338567,-71.13819,RapidTransit,,https://www.mbta.com/stops/place-tapst,level_median,0,place-tapst,2,Brookline,,,0,,,,,,,,,DOT_ADMIN,2022/10/17 19:46:59+00,DOT_ADMIN,2022/10/17 19:46:59+00
-71.0639170004322,42.3496619998964,647932,70016,70016,Tufts Medical Center,Tufts Medical Center - Orange Line - Forest Hills,,Forest Hills,42.349662,-71.063917,RapidTransit,,https://www.mbta.com/stops/place-tumnl,level_-2_platform,0,place-tumnl,1,Boston,,,1,,,,,,,,,DOT_ADMIN,2022/10/17 19:46:59+00,DOT_ADMIN,2022/10/17 19:46:59+00
-71.0639170004322,42.3496619998964,647933,70017,70017,Tufts Medical Center,Tufts Medical Center - Orange Line - Oak Grove,,Oak Grove,42.349662,-71.063917,RapidTransit,,https://www.mbta.com/stops/place-tumnl,level_-2_platform,0,place-tumnl,1,Boston,,,1,,,,,,,,,DOT_ADMIN,2022/10/17 19:46:59+00,DOT_ADMIN,2022/10/17 19:46:59+00
-71.0653100002867,42.348689999742,647934,door-tumnl-tremont,,"Tufts Medical Center - Tremont St, YMCA Wang","Tufts Medical Center - Tremont St, YMCA Wang",,,42.34869,-71.06531,,,,level_in_street,2,place-tumnl,2,Boston,,,,,,,,,,,,DOT_ADMIN,2022/10/17 19:46:59+00,DOT_ADMIN,2022/10/17 19:46:59+00
-71.0639170004322,42.3496619998964,647935,door-tumnl-washington,,"Tufts Medical Center - Washington St, Tufts Medical Center","Tufts Medical Center - Washington St, Tufts Medical Center",,,42.349662,-71.063917,,,,level_in_street,2,place-tumnl,1,Boston,,,,,,,,,,,,DOT_ADMIN,2022/10/17 19:46:59+00,DOT_ADMIN,2022/10/17 19:46:59+00
-71.0939639997054,42.377023999765,647937,70503,70503,Union Square,Union Square - Green Line - Copley & West,,Copley & West,42.377024,-71.093964,RapidTransit,,https://www.mbta.com/stops/place-unsqu,level_ground,0,place-unsqu,1,Somerville,,,0,,,,,,,,,DOT_ADMIN,2022/10/17 19:46:59+00,DOT_ADMIN,2022/10/17 19:46:59+00
-71.0939930001922,42.3769900002169,647938,70504,70504,Union Square,Union Square - Green Line - Copley & West,,Copley & West,42.37699,-71.093993,RapidTransit,,https://www.mbta.com/stops/place-unsqu,level_ground,0,place-unsqu,1,Somerville,,,0,,,,,,,,,DOT_ADMIN,2022/10/17 19:46:59+00,DOT_ADMIN,2022/10/17 19:46:59+00
-71.0933559998014,42.3768410002281,647939,door-unsqu-allen,,Union Square - Allen St,Union Square - Allen St,,,42.376841,-71.093356,,,,level_in_street,2,place-unsqu,1,Somerville,,,,,,,,,,,,DOT_ADMIN,2022/10/17 19:46:59+00,DOT_ADMIN,2022/10/17 19:46:59+00
-71.0950450000607,42.3776119996419,647940,door-unsqu-elevator,,Union Square - Prospect St,Union Square - Prospect St,,,42.377612,-71.095045,,,,level_1_in_street,2,place-unsqu,1,Somerville,,,,,,,,,,,,DOT_ADMIN,2022/10/17 19:46:59+00,DOT_ADMIN,2022/10/17 19:46:59+00
-71.0947739998624,42.3779909998465,647941,door-unsqu-ramp,,Union Square - Prospect St (Ramp),Union Square - Prospect St (Ramp),,,42.377991,-71.094774,,,,level_in_street,2,place-unsqu,1,Somerville,,,,,,,,,,,,DOT_ADMIN,2022/10/17 19:46:59+00,DOT_ADMIN,2022/10/17 19:46:59+00
-71.0815040004278,42.2683889998586,647943,70271,70271,Valley Road,Valley Road - Mattapan Trolley - Mattapan,,Mattapan,42.268389,-71.081504,RapidTransit,,https://www.mbta.com/stops/place-valrd,level_ground,0,place-valrd,2,Milton,,,0,,,,,,,,,DOT_ADMIN,2022/10/17 19:46:59+00,DOT_ADMIN,2022/10/17 19:46:59+00
-71.0813429997915,42.2683469998347,647944,70272,70272,Valley Road,Valley Road - Mattapan Trolley - Ashmont,,Ashmont,42.268347,-71.081343,RapidTransit,,https://www.mbta.com/stops/place-valrd,level_ground,0,place-valrd,2,Milton,,,0,,,,,,,,,DOT_ADMIN,2022/10/17 19:46:59+00,DOT_ADMIN,2022/10/17 19:46:59+00
-71.0811249998518,42.2679319999377,647945,door-valrd-eliot,,Valley Road - Eliot St,Valley Road - Eliot St,,,42.267932,-71.081125,,,,level_1_in_street,2,place-valrd,2,Milton,,,,,,,,,,,,DOT_ADMIN,2022/10/17 19:46:59+00,DOT_ADMIN,2022/10/17 19:46:59+00
-71.2304759999479,42.3256950002418,647947,70164,70164,Waban,Waban - Green Line - Park Street & North,,Park Street & North,42.325695,-71.230476,RapidTransit,,https://www.mbta.com/stops/place-waban,level_ground,0,place-waban,2,Newton,,,0,,,,,,,,,DOT_ADMIN,2022/10/17 19:46:59+00,DOT_ADMIN,2022/10/17 19:46:59+00
-71.2307139994329,42.3259669998728,647948,70165,70165,Waban,Waban - Green Line - (D) Riverside,,Riverside,42.325967,-71.230714,RapidTransit,,https://www.mbta.com/stops/place-waban,level_ground,0,place-waban,2,Newton,,,0,,,,,,,,,DOT_ADMIN,2022/10/17 19:46:59+00,DOT_ADMIN,2022/10/17 19:46:59+00
-71.2309229996933,42.3262980000077,647949,door-waban-beacon,,Waban - Beacon St (Stairs),Waban - Beacon St (Stairs),,,42.326298,-71.230923,,,,level_beacon_st,2,place-waban,2,Newton,,,,,,,,,,,,DOT_ADMIN,2022/10/17 19:46:59+00,DOT_ADMIN,2022/10/17 19:46:59+00
-71.2302879994171,42.3257479995643,647950,door-waban-parkr,,Waban - Parking (Ramp),Waban - Parking (Ramp),,,42.325748,-71.230288,,,,level_ground,2,place-waban,1,Newton,,,,,,,,,,,,DOT_ADMIN,2022/10/17 19:46:59+00,DOT_ADMIN,2022/10/17 19:46:59+00
-71.2307249999232,42.3260459999463,647951,door-waban-parks,,Waban - Parking (Stairs),Waban - Parking (Stairs),,,42.326046,-71.230725,,,,level_ground,2,place-waban,2,Newton,,,,,,,,,,,,DOT_ADMIN,2022/10/17 19:46:59+00,DOT_ADMIN,2022/10/17 19:46:59+00
-71.2305600002827,42.3263549996093,647952,door-waban-wyman,,Waban - Wyman St,Waban - Wyman St,,,42.326355,-71.23056,,,,level_in_street,2,place-waban,1,Newton,,,,,,,,,,,,DOT_ADMIN,2022/10/17 19:46:59+00,DOT_ADMIN,2022/10/17 19:46:59+00
-71.1423850005817,42.3443290003392,647954,70120,70120,Washington Street,Washington Street - Green Line - Park Street & North,,Park Street & North,42.344329,-71.142385,RapidTransit,,https://www.mbta.com/stops/place-wascm,level_median,0,place-wascm,1,Boston,,,0,,,,,,,,,DOT_ADMIN,2022/10/17 19:46:59+00,DOT_ADMIN,2022/10/17 19:46:59+00
-71.1427309998325,42.3439739997604,647955,70121,70121,Washington Street,Washington Street - Green Line - (B) Boston College,,Boston College,42.343974,-71.142731,RapidTransit,,https://www.mbta.com/stops/place-wascm,level_median,0,place-wascm,1,Boston,,,0,,,,,,,,,DOT_ADMIN,2022/10/17 19:46:59+00,DOT_ADMIN,2022/10/17 19:46:59+00
-71.0772519995619,42.4015049998991,647958,70032,70032,Wellington,Wellington - Orange Line - Forest Hills,1,Forest Hills,42.401505,-71.077252,RapidTransit,,https://www.mbta.com/stops/place-welln,level_-0.5_platform,0,place-welln,1,Medford,,,1,,,,,,,,,DOT_ADMIN,2022/10/17 19:46:59+00,DOT_ADMIN,2022/10/17 19:46:59+00
-71.0771499994809,42.4015070001148,647959,70033,70033,Wellington,Wellington - Orange Line - Oak Grove,2,Oak Grove,42.401507,-71.07715,RapidTransit,,https://www.mbta.com/stops/place-welln,level_-0.5_platform,0,place-welln,1,Medford,,,1,,,,,,,,,DOT_ADMIN,2022/10/17 19:46:59+00,DOT_ADMIN,2022/10/17 19:46:59+00
-71.0765760003228,42.4024460000521,647960,door-welln-busway,,"Wellington - Buses, Parking Lot","Wellington - Buses, Parking Lot",,,42.402446,-71.076576,,,,level_ground,2,place-welln,1,Medford,,,,,,,,,,,,DOT_ADMIN,2022/10/17 19:46:59+00,DOT_ADMIN,2022/10/17 19:46:59+00
-71.0800920002213,42.4024609996921,647961,door-welln-garage,,"Wellington - Station Landing, Garage","Wellington - Station Landing, Garage",,,42.402461,-71.080092,,,,level_ground,2,place-welln,1,Medford,,,,,,,,,,,,DOT_ADMIN,2022/10/17 19:46:59+00,DOT_ADMIN,2022/10/17 19:46:59+00
-71.0228179998373,42.3797399998254,647964,70049,70049,Wood Island,Wood Island - Blue Line - Bowdoin,1,Bowdoin,42.37974,-71.022818,RapidTransit,,https://www.mbta.com/stops/place-wimnl,level_0_platform,0,place-wimnl,1,Boston,,,1,,,,,,,,,DOT_ADMIN,2022/10/17 19:46:59+00,DOT_ADMIN,2022/10/17 19:46:59+00
-71.0227830000631,42.3796709996842,647965,70050,70050,Wood Island,Wood Island - Blue Line - Wonderland,2,Wonderland,42.379671,-71.022783,RapidTransit,,https://www.mbta.com/stops/place-wimnl,level_0_platform,0,place-wimnl,1,Boston,,,1,,,,,,,,,DOT_ADMIN,2022/10/17 19:46:59+00,DOT_ADMIN,2022/10/17 19:46:59+00
-71.0230519998822,42.3798539995838,647966,door-wimnl-benning,,Wood Island - Bennington St,Wood Island - Bennington St,,,42.379854,-71.023052,,,,level_ground,2,place-wimnl,1,Boston,,,,,,,,,,,,DOT_ADMIN,2022/10/17 19:46:59+00,DOT_ADMIN,2022/10/17 19:46:59+00
-71.0230829995011,42.3794460003143,647967,door-wimnl-lovell,,Wood Island - Lovell St,Wood Island - Lovell St,,,42.379446,-71.023083,,,,level_in_street,2,place-wimnl,1,Boston,,,,,,,,,,,,DOT_ADMIN,2022/10/17 19:46:59+00,DOT_ADMIN,2022/10/17 19:46:59+00
-71.0205419999308,42.2667619996235,647969,70099,70099,Wollaston,Wollaston - Red Line - Braintree,,Braintree,42.266762,-71.020542,RapidTransit,,https://www.mbta.com/stops/place-wlsta,level_1_platform,0,place-wlsta,1,Quincy,,,1,,,,,,,,,DOT_ADMIN,2022/10/17 19:46:59+00,DOT_ADMIN,2022/10/17 19:46:59+00
-71.0204570003227,42.2667880003907,647970,70100,70100,Wollaston,Wollaston - Red Line - Alewife,,Alewife,42.266788,-71.020457,RapidTransit,,https://www.mbta.com/stops/place-wlsta,level_1_platform,0,place-wlsta,1,Quincy,,,1,,,,,,,,,DOT_ADMIN,2022/10/17 19:46:59+00,DOT_ADMIN,2022/10/17 19:46:59+00
-71.0199479995983,42.2666389998385,647971,door-wlsta-beale,,"Wollaston - Beale Street, drop-off/pick-up","Wollaston - Beale Street, drop-off/pick-up",,,42.266639,-71.019948,,,,level_ground,2,place-wlsta,1,Quincy,,,,,,,,,,,,DOT_ADMIN,2022/10/17 19:46:59+00,DOT_ADMIN,2022/10/17 19:46:59+00
-71.0205229994918,42.2665539999465,647972,door-wlsta-newpnorth,,Wollaston - Newport Ave (Stairs),Wollaston - Newport Ave (Stairs),,,42.266554,-71.020523,,,,level_ground,2,place-wlsta,2,Quincy,,,,,,,,,,,,DOT_ADMIN,2022/10/17 19:46:59+00,DOT_ADMIN,2022/10/17 19:46:59+00
-71.0201669996583,42.2662220000774,647973,door-wlsta-newpsouth,,Wollaston - Newport Ave (Ramp),Wollaston - Newport Ave (Ramp),,,42.266222,-71.020167,,,,level_ground,2,place-wlsta,1,Quincy,,,,,,,,,,,,DOT_ADMIN,2022/10/17 19:46:59+00,DOT_ADMIN,2022/10/17 19:46:59+00
-71.0201040001202,42.2667830001582,647974,door-wlsta-parking,,"Wollaston - Parking, drop-off/pick-up","Wollaston - Parking, drop-off/pick-up",,,42.266783,-71.020104,,,,level_ground,2,place-wlsta,1,Quincy,,,,,,,,,,,,DOT_ADMIN,2022/10/17 19:46:59+00,DOT_ADMIN,2022/10/17 19:46:59+00
-70.9917139998943,42.4135139999565,647977,70059,70059,Wonderland,Wonderland - Blue Line - Bowdoin,1,Bowdoin,42.413514,-70.991714,RapidTransit,,https://www.mbta.com/stops/place-wondl,level_0_platform,0,place-wondl,1,Revere,,,1,,,,,,,,,DOT_ADMIN,2022/10/17 19:46:59+00,DOT_ADMIN,2022/10/17 19:46:59+00
-70.9916850001548,42.413361000197,647978,70060,70060,Wonderland,Wonderland - Blue Line - Exit Only,2,Exit Only,42.413361,-70.991685,RapidTransit,,https://www.mbta.com/stops/place-wondl,level_0_platform,0,place-wondl,1,Revere,,,1,,,,,,,,,DOT_ADMIN,2022/10/17 19:46:59+00,DOT_ADMIN,2022/10/17 19:46:59+00
-70.9919040001702,42.4136500001154,647979,door-wondl-nshore,,Wonderland - 1300 North Shore Rd,Wonderland - 1300 North Shore Rd,,,42.41365,-70.991904,,,,level_in_street,2,place-wondl,1,Revere,,,,,,,,,,,,DOT_ADMIN,2022/10/17 19:46:59+00,DOT_ADMIN,2022/10/17 19:46:59+00
-70.9915499996354,42.4132950001718,647980,door-wondl-ocean,,Wonderland - Ocean Ave,Wonderland - Ocean Ave,,,42.413295,-70.99155,,,,level_ground,2,place-wondl,1,Revere,,,,,,,,,,,,DOT_ADMIN,2022/10/17 19:46:59+00,DOT_ADMIN,2022/10/17 19:46:59+00
-70.9904940001868,42.4133719999762,647981,door-wondl-oceann,,Wonderland - Ocean Ave North,Wonderland - Ocean Ave North,,,42.413372,-70.990494,,,,level_in_street,2,place-wondl,2,Revere,,,,,,,,,,,,DOT_ADMIN,2022/10/17 19:46:59+00,DOT_ADMIN,2022/10/17 19:46:59+00
-70.9905580000466,42.4135369999845,647982,door-wondl-oceannele,,Wonderland - Ocean Ave North Elevator,Wonderland - Ocean Ave North Elevator,,,42.413537,-70.990558,,,,level_in_street,2,place-wondl,1,Revere,,,,,,,,,,,,DOT_ADMIN,2022/10/17 19:46:59+00,DOT_ADMIN,2022/10/17 19:46:59+00
-70.989769999838,42.4132900002049,647983,door-wondl-revere,,Wonderland - Revere Beach,Wonderland - Revere Beach,,,42.41329,-70.98977,,,,level_in_street,2,place-wondl,1,Revere,,,,,,,,,,,,DOT_ADMIN,2022/10/17 19:46:59+00,DOT_ADMIN,2022/10/17 19:46:59+00
-71.2430550003491,42.3327029995595,647985,70162,70162,Woodland,Woodland - Green Line - Park Street & North,,Park Street & North,42.332703,-71.243055,RapidTransit,,https://www.mbta.com/stops/place-woodl,level_ground,0,place-woodl,1,Newton,,,0,,,,,,,,,DOT_ADMIN,2022/10/17 19:46:59+00,DOT_ADMIN,2022/10/17 19:46:59+00
-71.2436590003912,42.3330939997432,647986,70163,70163,Woodland,Woodland - Green Line - (D) Riverside,,Riverside,42.333094,-71.243659,RapidTransit,,https://www.mbta.com/stops/place-woodl,level_ground,0,place-woodl,1,Newton,,,0,,,,,,,,,DOT_ADMIN,2022/10/17 19:46:59+00,DOT_ADMIN,2022/10/17 19:46:59+00
-71.2429079998059,42.3327289998267,647987,door-woodl-east,,Woodland - East,Woodland - East,,,42.332729,-71.242908,,,,level_in_street,2,place-woodl,1,Newton,,,,,,,,,,,,DOT_ADMIN,2022/10/17 19:46:59+00,DOT_ADMIN,2022/10/17 19:46:59+00
-71.2437200006062,42.3331360000292,647988,door-woodl-main,,Woodland - Main,Woodland - Main,,,42.333136,-71.24372,,,,level_in_street,2,place-woodl,1,Newton,,,,,,,,,,,,DOT_ADMIN,2022/10/17 19:46:59+00,DOT_ADMIN,2022/10/17 19:46:59+00
-71.1404360005816,42.3482850000377,647990,70124,70124,Warren Street,Warren Street - Green Line - Park Street & North,,Park Street & North,42.348285,-71.140436,RapidTransit,,https://www.mbta.com/stops/place-wrnst,level_median,0,place-wrnst,2,Boston,,,0,,,,,,,,,DOT_ADMIN,2022/10/17 19:46:59+00,DOT_ADMIN,2022/10/17 19:46:59+00
-71.1400510005927,42.3488190000514,647991,70125,70125,Warren Street,Warren Street - Green Line - (B) Boston College,,Boston College,42.348819,-71.140051,RapidTransit,,https://www.mbta.com/stops/place-wrnst,level_median,0,place-wrnst,2,Boston,,,0,,,,,,,,,DOT_ADMIN,2022/10/17 19:46:59+00,DOT_ADMIN,2022/10/17 19:46:59+00
-71.0423679994217,42.3487019998437,647995,door-wtcst-congress,,World Trade Center - Congress St,World Trade Center - Congress St,,,42.348702,-71.042368,,,,level_congress_st,2,place-wtcst,1,Boston,,,,,,,,,,,,DOT_ADMIN,2022/10/17 19:46:59+00,DOT_ADMIN,2022/10/17 19:46:59+00
-71.0425090000972,42.3484840002262,647996,door-wtcst-wtc,,World Trade Center - World Trade Center Ave,World Trade Center - World Trade Center Ave,,,42.348484,-71.042509,,,,level_wtc_ave,2,place-wtcst,1,Boston,,,,,,,,,,,,DOT_ADMIN,2022/10/17 19:46:59+00,DOT_ADMIN,2022/10/17 19:46:59+00
